inputAddress,validationGranularity,formattedAddress,geocodeGranularity,placeId,latitude,longitude
10720 METRO MONT PARKWAY CHARLOTTE NC 28269,PREMISE,"10720 Metromont Parkway, Charlotte, NC 28269-7506, USA",PREMISE,ChIJZZ9hTaGnVogRx_0ZE5De6QI,35.35382,-80.8376708
3000 ESPRESSO WAY YORK PA 17406,PREMISE,"3000 Espresso Way, York, PA 17406-6035, USA",PREMISE,ChIJMdhZNR-SyIkRg8sgGuGQIUE,40.051508,-76.739378
830 EAST CENTRE PARK BLVDCP6903 DE SOTO TX 75115,PREMISE,"830 East Centre Park Boulevard BLVDCP6903, DeSoto, TX 75115, USA",PREMISE,EkA4MzAgRWFzdCBDZW50cmUgUGFyayBCb3VsZXZhcmQgQkxWRENQNjkwMywgRGVTb3RvLCBUWCA3NTExNSwgVVNBIiEaHwoWChQKEgm3MRjb_5NOhhGxLkvrnU7gJBIFYzY5MDM,32.6219054,-96.8368586
375 KENYON ROADVIRGINIA COMMERCE CTR BLDG 100 SUFFOLK VA 23434,PREMISE,"COMMERCE CTR, 375 Kenyon Road BLDG 100, Suffolk, VA 23434-7451, USA",PREMISE,EkNDT01NRVJDRSBDVFIsIDM3NSBLZW55b24gUm9hZCBCTERHIDEwMCwgU3VmZm9saywgVkEgMjM0MzQtNzQ1MSwgVVNBIiQaIgoWChQKEgmDMLzUGRCwiRHvK1QI7OZVKhIIYmxkZyAxMDA,36.7317707,-76.652642
"2400 COMMERCE CENTER BLVD BETHLEHEM ,NO PA 18015",PREMISE,"NO, 2400 Commerce Center Boulevard, Bethlehem, PA 18015-9543, USA",PREMISE,ChIJ0e7Ai4wVxIkRGwVr1FA_BXQ,40.6035719,-75.334226
1848 NORTH MAIN STREET MANSFIELD TX 76063,PREMISE,"1848 North Main Street, Mansfield, TX 76063, USA",PREMISE,ChIJjT7ksUNhToYRwBrLwHA8h48,32.5896882,-97.160567
10700 S STATE HWY 43 SOUTHWEST CITY MO 64863,PREMISE,"10700 South State Highway 43, Southwest City, MO 64863-7272, USA",PREMISE,ChIJgU652CFNyIcRKt0UbzSsSRc,36.5424638,-94.6002146
3701 MONROE WAY PINEVILLE LA 71360,PREMISE,"3701 Monroe Highway, Pineville, LA 71360-4112, USA",PREMISE,ChIJd4Iy21FMJYYR9Is4mD7gM5w,31.3701734,-92.4122257
1403 CORTINA DR ORLAND CA 95963,PREMISE,"1403 Cortina Drive, Orland, CA 95963-1600, USA",PREMISE,ChIJE0BRFmv7goARZwLZxO4J6dY,39.7374153,-122.2010989
900 SCHMIDT ROAD ROMEOVILLE IL 60446,PREMISE,"900 Schmidt Road, Romeoville, IL 60446-4056, USA",PREMISE,ChIJZaRbS1VZDogR9WMRhQpVlAE,41.6652279,-88.091019
11559 JERSERY BLVD RANCHO CUCAMONGA CA 91730,PREMISE,"11559 Jersey Boulevard, Rancho Cucamonga, CA 91730-4924, USA",PREMISE,ChIJVSDH5_Q1w4AR2tgBvpTNfVs,34.0941852,-117.5531764
2335 SAINT JOHNS RD LIMA OH 45804,PREMISE,"2335 Saint Johns Road, Lima, OH 45804-3862, USA",PREMISE,ChIJqzxLxhfuPogR6lVNKO3rA_4,40.7076197,-84.0888679
WAXDALE PLANT8311 16TH ST STURTEVANT WI 53177,PREMISE,"WAXDALE PLANT8311 16th Street, Sturtevant, WI 53177, USA",PREMISE,ChIJRZp8Y1toBYgRtS22uT_pE_Y,42.7122954,-87.8859293
820 SPARKS DR CLEBURNE TX 76033,PREMISE,"820 Sparks Drive, Cleburne, TX 76033-7700, USA",PREMISE,ChIJPYaQ4jFHToYRbNe0V5_jqas,32.404186,-97.4060306
1331 E AIRPORT FWY IRVING TX 75062,PREMISE,"1331 East Airport Freeway, Irving, TX 75062-4818, Yr Unol Daleithiau",PREMISE,ChIJfe68aJGDToYRKm9EJRhmIF0,32.8376392,-96.9263109
3935 INTERMODAL DRIVE WINTER HAVEN FL 33884,PREMISE,"3935 Intermodal Drive, Winter Haven, FL 33884, USA",PREMISE,ChIJAwbbIuQR3YgRZLbB6uJnkBQ,27.9384788,-81.6980627
DUMMY ADDRESS 1 SHERIDAN LA 70438,OTHER,"DUMMY ADDRESS, #1, Sheridan, LA 70438, USA",OTHER,ChIJOzwNwt5_J4YRa9S-iJr2mGo,30.8685178,-90.0031367
14551 INDUSTRY CIR RENO NV 89506,PREMISE,"14551 Industry Circle, Reno, NV 89506-2641, USA",PREMISE,ChIJDcluzRxMmYARQPrC_wtyCpk,39.6582881,-119.8934519
17341 W MINNEZONA AVE GOODYEAR AZ 85395,PREMISE,"17341 West Minnezona Avenue, Goodyear, AZ 85395-7672, Egyesült Államok",PREMISE,ChIJbyNpiRpHK4cRJj5cKMoTMnI,33.4945252,-112.4311038
2450 WRIGHT BLVD% NORTH AMERICAN PARTS HEBRON KY 41048,PREMISE,"AMERICAN PARTS, 2450 WRIGHT BLVD% NORTH, Hebron, KY 41048-8125, USA",PREMISE,ChIJiQJS90DPQYgRjTKrLMsl4qE,39.0537397,-84.7077171
2600 ENTERPRISE DR STURTEVANT WI 53177,PREMISE,"2600 Enterprise Drive, Sturtevant, WI 53177-1886, USA",PREMISE,ChIJl21f05VoBYgRiZgARCjwn64,42.7038381,-87.9114524
DUMMY ADDRESS 4 HAMBURG AR 71646,OTHER,"DUMMY ADDRESS, #4, Hamburg, AR 71646, USA",OTHER,ChIJyYeoL2UtLIYRBB8dJ-PUFJ8,33.225724,-91.7975545
407 PROGRESS DR SHERMAN TX 75092,PREMISE,"407 Progress Drive, Sherman, TX 75092-7157, USA",PREMISE,ChIJ5yY9avtiTIYRhmnsZWGQKRE,33.5820395,-96.6118062
626 LOUCKS MILL RD YORK PA 17403,PREMISE,"626 Loucks Mill Road, York, PA 17403-1011, USA",PREMISE,ChIJAQiO_5iOyIkRb2Qg48usrYA,39.972817,-76.7251747
7737 HAMPTON BLVD NORFOLK VA 23505,PREMISE,"7737 Hampton Boulevard, Norfolk, VA 23505-1204, USA",PREMISE_PROXIMITY,EjM3NzM3IEhhbXB0b24gQm91bGV2YXJkLCBOb3Jmb2xrLCBWQSAyMzUwNS0xMjA0LCBVU0EiMRIvChQKEgmpJdTMhJm6iRHuT1zR-QNg5xC5PCoUChIJOzdHl8ybuokRvXQwlho0xI8,36.9169068,-76.3098119
671 WASHBURN SWITCH RD SHELBY NC 28150,PREMISE,"671 Washburn Switch Road, Shelby, NC 28150-7712, USA",PREMISE,ChIJOcJIpS0iV4gRdYqcSza84aM,35.315021,-81.6124877
13761 AIRPORT RD MAXTON NC 28364,PREMISE,"13761 Airport Road, Maxton, NC 28364-9424, USA",PREMISE,ChIJj9-9rbAqq4kRhO9bNoeJgJw,34.7648915,-79.3689458
17000 EAST HWY 120 RIPON CA 95366,PREMISE,"17000 East Highway 120, Ripon, CA 95366-9412, USA",PREMISE_PROXIMITY,EjExNzAwMCBFYXN0IEhpZ2h3YXkgMTIwLCBSaXBvbiwgQ0EgOTUzNjYtOTQxMiwgVVNBIjISMAoUChIJRXLnL3lBkIARXASsW6Bnfw4Q6IQBKhQKEglvDS9IeEGQgBHp_kw0vNktMg,37.7975582,-121.1768854
246 OLD JACKSON HWYP O BOX 112 BEECH ISLAND SC 29842,PREMISE,"246 Old Jackson Highway BOX 112, Beech Island, SC 29842-4569, USA",PREMISE,ChIJv4urHL3J-YgRTRczAS7ErCY,33.4174098,-81.8969033
1955 W NORTH AVE MELROSE PARK IL 60160,PREMISE,"1955 West North Avenue, Melrose Park, IL 60160-1131, USA",PREMISE,ChIJr2tENVm1D4gRBbsm-Tv5Jbs,41.9115441,-87.8592723
12885 104TH ST PLEASANT PRAIRIE WI 53158,PREMISE,"12885 104th Street, Pleasant Prairie, WI 53158-6103, USA",PREMISE,ChIJ65iYOM-JD4gRMzOU8L-ISwY,42.5191531,-87.964415
12801 EXCELSIOR DRIVE NORWALK CA 90650,PREMISE,"12801 Excelsior Drive, Norwalk, CA 90650, USA",PREMISE,ChIJqzWawtss3YAR3C83CE2J7KI,33.8960546,-118.0586772
568 SHORE AIRPORT RDSHIPPING 5372/ 5373 TICONDEROGA NY 12883,PREMISE,"568 Shore-Airport Road RDSHIPPING 5372/ 5373, Ticonderoga, NY 12883, USA",PREMISE,ChIJu_2el9KpykwRIzyabIw6jzA,43.8921649,-73.4024065
RR 24 BOX EAST MILLSBORO DE 19966,OTHER,"RR 24 BOX EAST, Millsboro, DE 19966, USA",OTHER,ChIJ2_-cYoe_uIkRlAmlYG096kE,38.5915023,-75.2913018
"2917 GUINOTTE KANSAS CITY,JA MO 64120",PREMISE,"JA, 2917 Guinotte Avenue, Kansas City, MO 64120-2003, USA",PREMISE,ChIJ0akSXWj6wIcRUiPeoYJK8CA,39.1196684,-94.54407
6 LOGISTICS DRIVE BLDG 6 CARLISLE PA 17013,PREMISE,"6 Logistics Drive BLDG 6, Carlisle, PA 17013-7901, USA",PREMISE,EjY2IExvZ2lzdGljcyBEcml2ZSBCTERHIDYsIENhcmxpc2xlLCBQQSAxNzAxMy03OTAxLCBVU0EiHRobChYKFAoSCRtKb7VgHsmJEYJwigshhk4cEgE2,40.1893723,-77.2325842
805 S SANTA FE EL PASO TX 79901,PREMISE,"805 South Santa Fe Street, El Paso, TX 79901-2235, EE. UU.",PREMISE,ChIJNbNCbOJY54YRmnPHGALY6Mk,31.7517499,-106.4886967
2151 S VINTAGE AVE ONTARIO CA 91761,PREMISE,"2151 South Vintage Avenue, Ontario, CA 91761-2824, USA",PREMISE,ChIJ9R3OGUu13IAR6hbRX0-immk,34.0363237,-117.5294048
5665 W LOWER BUCKEYE RD PHOENIX AZ 85043,PREMISE,"5665 West Lower Buckeye Road, Phoenix, AZ 85043, USA",PREMISE,ChIJ4X-G72QXK4cR9MsQ_43qIGY,33.4176907,-112.1817452
234 CHARLES DR HOLLAND MI 49424,PREMISE,"234 Charles Drive, Holland, MI 49424-2088, USA",PREMISE,ChIJ_6lCRlGNGYgRhPzlApk9M5Y,42.8034404,-86.0994222
15W460 N FRONTAGE RD BURR RIDGE IL 60527,PREMISE,"15W460 North Frontage Road, Burr Ridge, IL 60527-5578, USA",PREMISE,ChIJkxdNkLFIDogRyb7GS2QtzoU,41.753694,-87.927857
4950 POW MIA MEMORIAL PKWY JACKSONVILLE FL 32221,PREMISE,"4950 POW-MIA Memorial Parkway, Jacksonville, FL 32221-8117, USA",PREMISE,ChIJF63bpKfr5YgRksJ2H1wXOYw,30.2670336,-81.8866956
9742 NORTH LOOP DR EL PASO TX 79927,PREMISE,"9742 North Loop Drive, El Paso, TX 79927-5013, USA",PREMISE,ChIJ81bhm2BC54YRb6NBQ2m35lw,31.6809454,-106.2952911
361 WEST 47TH ST CHICAGO IL 60609,PREMISE,"361 West 47th Street, Chicago, IL 60609-4547, USA",PREMISE,ChIJa6TrOb0uDogRMLd9p_039eU,41.805384,-87.6368768
5300 W OGDEN AVE CICERO IL 60804,PREMISE_PROXIMITY,"5300 West Ogden Avenue, Cicero, IL 60804, Stati Uniti",PREMISE_PROXIMITY,EjU1MzAwIFdlc3QgT2dkZW4gQXZlbnVlLCBDaWNlcm8sIElMIDYwODA0LCBTdGF0aSBVbml0aSIxEi8KFAoSCe1Jpdi_Mw6IEZ99LZz05MaJELQpKhQKEgmJmC5bcC0OiBHc9ta2vEJbJw,41.8399549,-87.75645
125 COUNTY ROAD JERSEY CITY NJ 7307,PREMISE,"125 County Road, Jersey City, NJ 07307-4504, USA",PREMISE,ChIJg34loBpXwokRxcZTTazDcFo,40.7557206,-74.0653545
4814 LAMAR AVE MEMPHIS TN 38118,PREMISE,"4814 Lamar Avenue, Memphis, TN 38118-7403, USA",PREMISE,ChIJxXEzxmiPf4gRKzFup7TdgdU,35.0261713,-89.9025779
3345 MILLER PARK NORTH GARLAND TX 75042,PREMISE,"3345 Miller Park North, Garland, TX 75042-7764, USA",PREMISE,ChIJKTr7VxkeTIYRQljvmS0sxBc,32.9068845,-96.6799345
1010 W 4TH STPSP1 BEAUMONT CA 92223,PREMISE,"1010 West 4th Street, Beaumont, CA 92223-2684, USA",PREMISE,ChIJDQi911pb24ARSiN0z1fqYX8,33.9285142,-117.0024016
2501 N FRAZIER STREET CONROE TX 77303,PREMISE,"2501 North Frazier Street, Conroe, TX 77303-1586, USA",PREMISE,ChIJw5PHBqI-R4YRjqFr2fl82-g,30.3440404,-95.472047
11400 88TH AVE. PLEASANT PRAIRIE WI 53158,PREMISE,"11400 88th Avenue, Pleasant Prairie, WI 53158-2411, USA",PREMISE,ChIJhWPngj-KD4gRsk98vhpsalU,42.5105956,-87.91448
2112 ENRICO FERMI DR # 1 SAN DIEGO CA 92154,PREMISE,"2112 Enrico Fermi Drive #1, San Diego, CA 92154-7222, Stati Uniti",PREMISE,EkEyMTEyIEVucmljbyBGZXJtaSBEcml2ZSAjMSwgU2FuIERpZWdvLCBDQSA5MjE1NC03MjIyLCBTdGF0aSBVbml0aSIdGhsKFgoUChIJvbSUV_tG2YARi7P-P1vgpkISATE,32.5650455,-116.9270341
151 DAY ST WEST SPRINGFIELD MA 1089,PREMISE,"151 Day Street, West Springfield, MA 01089-3454, USA",PREMISE,ChIJYV_pSc3m5okRMX0G90tbzcA,42.0991275,-72.6137771
2420 YATES AVE COMMERCE CA 90040,PREMISE,"2420 Yates Avenue, Commerce, CA 90040-1918, USA",PREMISE,ChIJNdtF4D7OwoARSJnB-dKCxX4,33.9959715,-118.1323834
16047 MOUNTAIN AVEXLA3 AMAZON (XLCH2) CHINO CA 91708,PREMISE,"AMAZON (XLCH2, 16047 Mountain Avenue, Chino, CA 91708-9131, USA",PREMISE,ChIJKZK8h2DM3IARPgObA2NKs1E,33.9613136,-117.6650117
3300 HOGUM BAY RD NEOLM1 LACEY WA 98516,PREMISE,"3300 Hogum Bay Road Northeast, Lacey, WA 98516-3111, USA",PREMISE,ChIJSQZL1SwKkVQRHLTwNIHsymM,47.0803788,-122.7642571
549 DUNCAN ST NEW WESTMINSTER BC V3K5B6,PREMISE,"549 Duncan Street, New Westminster, BC, V3K5B6",PREMISE,ChIJJV5XJYTYhVQRwpph-9VTO2A,49.1966228,-122.9422384
1000 E 223RD STCURTIS INTERNA JACOB CARSON CA 90745,PREMISE,"1000 East 223rd Street INTERNA JACOB, Carson, CA 90745, USA",PREMISE,ChIJM83UzwM13YARN9Z5WsL1fPA,33.8244917,-118.2561344
701 D ARCY PKWY LATHROP CA 95330,PREMISE,"701 D'Arcy Parkway, Lathrop, CA 95330-8755, USA",PREMISE,ChIJCWxFFt4_kIARBTrL6B65t2o,37.8032268,-121.2865083
2932 142ND AVE E SUMNER WA 98390,PREMISE,"2932 142nd Avenue East, Sumner, WA 98390-9659, USA",PREMISE,ChIJUacIA6P5kFQRfXAkmrV9_Tc,47.2296901,-122.2443891
10501 N REEMS RD WADDELL AZ 85355,PREMISE,"10501 North Reems Road, Waddell, AZ 85355-9646, Egyesült Államok",PREMISE,ChIJPdhQ_blFK4cRdGiqUXBqPJg,33.5800072,-112.3934015
2301 W SAN BERNARDINO AVE REDLANDS CA 92374,PREMISE,"2301 West San Bernardino Avenue, Redlands, CA 92374-5007, USA",PREMISE,ChIJvVUQTg6r3IARbDi3CD4icSM,34.0754875,-117.2356802
7901 FM 1405 RD BAYTOWN TX 77520,PREMISE,"7901 Farm to Market 1405, Baytown, TX 77523-8632, USA",PREMISE,ChIJ5zooVNBcP4YRGmAwRTpQx8I,29.7519973,-94.9000498
2417 E CARSON ST100 LONG BEACH CA 90810,PREMISE,"2417 East Carson Street, Long Beach, CA 90810-1231, USA",PREMISE,EjcyNDE3IEVhc3QgQ2Fyc29uIFN0cmVldCwgTG9uZyBCZWFjaCwgQ0EgOTA4MTAtMTIzMSwgVVNBIh8aHQoWChQKEgmLm7OQrTPdgBHKkr4dBEHIYBIDMTAw,33.8325579,-118.1629413
145 MEAD RDPRG MILL COTTONTON AL 36851,PREMISE,"145 Mead Road MILL, Cottonton, AL 36851, USA",PREMISE,ChIJZ-lQQFEpjYgRl1nygcEJgs0,32.174979,-85.0298014
700 KRINER RD CHAMBERSBURG PA 17202,PREMISE,"700 Kriner Road, Chambersburg, PA 17202-7717, USA",PREMISE,ChIJx4_aDB2cyYkRagw6_8u8gi4,39.9030492,-77.6534292
450 DERWENT PL DELTA BC V3M5Y9,PREMISE_PROXIMITY,"450 Derwent Place, Delta, BC V3M 5Y9, Canada",PREMISE_PROXIMITY,Eiw0NTAgRGVyd2VudCBQbGFjZSwgRGVsdGEsIEJDIFYzTSA1WTksIENhbmFkYSIxEi8KFAoSCbVcoFvX2IVUESIDO9EID9HvEMIDKhQKEglZbUI32tiFVBG9RAS4jT558w,49.1622128,-122.9476268
45500 FREMONT BLVD. FREMONT CA 94538,PREMISE,"45500 Fremont Boulevard, Fremont, CA 94538-6326, USA",PREMISE,ChIJwUENjQLHj4ARe5cWf4W_Fx8,37.4924829,-121.9447251
"601 RANDOLPH ROADTEB9 SOMERSET ,SO NJ 8873",PREMISE,"601 Randolph Road, SO, NJ 08873-1280, USA",PREMISE,ChIJfbv8MUzBw4kRGJPOLbC0exo,40.5395665,-74.5602021
687 MARSHALL AVE WILLISTON VT 5495,PREMISE,"687 Marshall Avenue, Williston, VT 05495-7540, USA",PREMISE,ChIJ22JfFh15ykwRdU-xDKOR7xA,44.442967,-73.127433
"3516 S MILITARY HWY CHESAPEAKE ,IC VA 23323",PREMISE,"IC, 3516 South Military Highway, Chesapeake, VA 23323-2308, USA",PREMISE,ChIJ9ytqDvqjuokRBlBjQuawgfk,36.7697657,-76.3527845
7350 INDUSTRIAL BLVD ALLENTOWN PA 18106,PREMISE,"7350 Industrial Boulevard, Allentown, PA 18106-9344, USA",PREMISE,ChIJ-XPGZpwxxIkRBslmqieEa8Y,40.5734564,-75.6078069
2100 E TIPTON STDISPATCH OFFICE SEYMOUR IN 47274,PREMISE,"2100 East Tipton Street STDISPATCH OFFICE, Seymour, IN 47274, USA",PREMISE,ChIJufK0ziq_a4gRDe3NOE137Es,38.9541346,-85.8483037
6540 AUSTIN RDSTACK YARD STOCKTON CA 95205,PREMISE,"6540 Austin Road YARD, Stockton, CA 95215, USA",PREMISE,ChIJwzOyJvtrkIARPmNqkVmifAI,37.9058609,-121.1820186
1351 WILLIAMS AVE MEMPHIS TN 38104,PREMISE,"1351 Williams Avenue, Memphis, TN 38104-4722, USA",PREMISE,ChIJEeudMOd91YcRlc0VQn3Rzik,35.1205162,-90.0167604
250 EMERALD DRMDW2 JOLIET IL 60433,PREMISE,"250 Emerald Drive, Joliet, IL 60433-3280, USA",PREMISE,ChIJUwpNhmpkDogRym1Ix074Guo,41.4832892,-88.0711428
13305 104TH ST PLEASANT PRAIRIE WI 53158,PREMISE,"13305 104th Street, Pleasant Prairie, WI 53158, USA",PREMISE,ChIJq5Smhc6JD4gRg7bF8EXvDCo,42.5213626,-87.9686482
1005 101ST ST. LEMONT IL 60439,PREMISE,"1005 101st Street, Lemont, IL 60439-9627, USA",PREMISE,ChIJu0S239VEDogRqS5nCMKXpEI,41.7022818,-88.0070667
12773 STATE ROUTE 110 NAPOLEON OH 43545,PREMISE,"12773 Ohio 110, Napoleon, OH 43545-5898, USA",PREMISE,ChIJCTzS6WY3PIgRuHRrWfBHSc0,41.3946593,-84.109701
1568 N LINDEN AVELGB8 RIALTO CA 92376,PREMISE,"1568 North Linden Avenue, Rialto, CA 92376-8624, USA",PREMISE,ChIJfRS5WXBNw4AR3ltcUNvnGlk,34.1290324,-117.4037087
2325 W LOUISE AVEMEDLINE INDUSTR MANTECA CA 95337,PREMISE,"2325 West Louise Avenue INDUSTR, Manteca, CA 95337, USA",PREMISE,ChIJW0SCqqtqkIARwsUNsH8xXCI,37.817293,-121.2597678
1200 GA HIGHWAY 247 S KATHLEEN GA 31047,ROUTE,"1200 Georgia 247 South, Kathleen, GA 31047, USA",ROUTE,Ei8xMjAwIEdlb3JnaWEgMjQ3IFNvdXRoLCBLYXRobGVlbiwgR0EgMzEwNDcsIFVTQSIuKiwKFAoSCZVzK3eFX_GIEWHnB6IiCabbEhQKEgl5U8yabt_ziBGVc78vO49zvw,32.4959812,-83.607683
5770 OLD BATTLEBORO RD BATTLEBORO NC 27809,PREMISE,"5770 Old Battleboro Road, Battleboro, NC 27809-9085, USA",PREMISE_PROXIMITY,Ejg1NzcwIE9sZCBCYXR0bGVib3JvIFJvYWQsIEJhdHRsZWJvcm8sIE5DIDI3ODA5LTkwODUsIFVTQSIxEi8KFAoSCUe0_pnWfK6JEcYHH-EjYsv1EIotKhQKEgmNS2nhMX2uiREZbV7GijP-cg,36.0241597,-77.7518893
359 CLAY ROADATTN HELEN WILLIS SUNNYVALE TX 75182,PREMISE,"HELEN WILLIS, 359 Clay Road, Sunnyvale, TX 75182-9710, USA",PREMISE,ChIJk-34i5yvToYR1yCKbRuk9Lw,32.7678304,-96.5636594
5170 S ARCHIBALD AVE ONTARIO CA 91762,PREMISE,"5170 South Archibald Avenue, Ontario, CA 91762-7414, USA",PREMISE,ChIJ0QMZi__K3IART-FAEY9Yk2I,33.9810743,-117.5949585
16300 FERN AVE CHINO CA 91708,PREMISE,"16300 Fern Avenue, Chino, CA 91708-9003, USA",PREMISE,ChIJVQCKgHrM3IARkvpTlk3OT14,33.9561948,-117.6566396
VIA MTY MATAMOROS 592 PARQUEMILENIUM APODACA NL 66600,PREMISE_PROXIMITY,"Vía Monterrey-Matamoros 592, PARQUEMILENIUM, 66600 Ciudad Apodaca, N.L., México",PREMISE_PROXIMITY,ElFWw61hIE1vbnRlcnJleS1NYXRhbW9yb3MgNTkyLCBQQVJRVUVNSUxFTklVTSwgNjY2MDAgQ2l1ZGFkIEFwb2RhY2EsIE4uTC4sIE3DqXhpY28iMRIvChQKEgk_RzubKOlihhFBc9HPekXLDBDQBCoUChIJUzmrXTfpYoYRBBHI2550feU,25.7704526,-100.1301334
16850 HEACOCK ST MORENO VALLEY CA 92551,PREMISE,"16850 Heacock Street, Moreno Valley, CA 92551-9502, USA",PREMISE,ChIJY_u6-cCm3IAR_RxpYGZAc80,33.8768983,-117.2418909
3500 INDUSTRIAL RD HARRISBURG PA 17110,PREMISE,"3500 Industrial Road, Harrisburg, PA 17110-2908, USA",PREMISE,ChIJdV8IPMHGyIkRIKIbpJIFkgA,40.3076379,-76.8911921
775 GELLHORN DRCANT # 26403 HOUSTON TX 77029,PREMISE,"775 Gellhorn Drive DRCANT # 26403, Houston, TX 77029, USA",PREMISE,ChIJMQkxIn68QIYRIDCZ22GEiMM,29.7727755,-95.2688519
ATTN RIE BOWMAN1000 NORTH MISSION SAPULPA OK 74067,PREMISE,"ATTN RIE, BOWMAN1000 North Mission Street, Sapulpa, OK 74066, USA",PREMISE,ChIJgx8arNq9tocRSQd27dU6mAQ,36.0108334,-96.0992839
3309 S CREYTS RD LANSING MI 48917,PREMISE,"3309 South Creyts Road, Lansing, MI 48917-8508, USA",PREMISE,ChIJ86oicge_IogR9gGfWt20r4Q,42.6987087,-84.6406123
1115 WESEL BLVD HAGERSTOWN MD 21740,PREMISE,"1115 Wesel Boulevard, Hagerstown, MD 21740-8126, USA",PREMISE,ChIJ0QlbPnrzyYkRhjt8-IejlX0,39.6335781,-77.754073
4901 CHANDLER RDPO BOX 1888 MUSKOGEE OK 74403,PREMISE,"4901 Chandler Road BOX 1888, Muskogee, OK 74403-4945, USA",PREMISE,ChIJ6-mF-7_jtYcR4C__9sBHOFQ,35.7364292,-95.2919563
5 MAIN ST VAN BUREN AR 72956,PREMISE,"5 Main Street, Van Buren, AR 72956-5706, Verenigde Staten",PREMISE,ChIJNZmtIvi0y4cRGxDUKrYNjPI,35.4332891,-94.3574275
129 S TREE DR LANCASTER PA 17601,PREMISE,"129 South Tree Drive, Lancaster, PA 17603-4081, USA",PREMISE,ChIJy-2yFusmxokREbHfat0v2js,40.0484828,-76.3885073
4909 N COMMERCE DR EAST POINT GA 30344,PREMISE,"4909 North Commerce Drive, East Point, GA 30344-6426, USA",PREMISE,ChIJ_3Ra-kni9IgRD18ZLDo74sk,33.6357128,-84.5009157
3388 S CACTUS AVESBD1 BLOOMINGTON CA 92316,PREMISE,"3388 South Cactus Avenue, Bloomington, CA 92316-3819, USA",PREMISE,ChIJ4bGvoMyz3IARBOASDn9iZRQ,34.0387333,-117.3836391
6001 SYNERGY BLVD KILGORE TX 75662,PREMISE,"6001 Synergy Boulevard, Kilgore, TX 75662-0158, USA",PREMISE,ChIJSdpgzLgwNoYRGslMiQBbIxE,32.424238,-94.8259805
14 MAINSAIL DR NORTH KINGSTOWN RI 2852,PREMISE,"14 Mainsail Drive, North Kingstown, RI 02852, USA",PREMISE,ChIJndhI1Uqy5YkRI24IiZJJGlM,41.5938354,-71.4299015
7600 SOUTH WESTERN AVE CHICAGO IL 60620,PREMISE,"7600 South Western Avenue, Chicago, IL 60620-5818, USA",PREMISE,ChIJyU_Dd-kvDogRxe8Cz6pIbgo,41.7547484,-87.6834223
4634 RADFORD RD FLOWERY BRANCH GA 30542,PREMISE,"4634 Radford Road, Flowery Branch, GA 30542, USA",PREMISE,ChIJZU1Ear7y9YgRLrzSt9-55XA,34.198181,-83.912441
3900 BRANDON RD JOLIET IL 60436,PREMISE,"3900 South Brandon Road, Joliet, IL 60436-9521, USA",PREMISE,ChIJByyzZW9jDogRJrH0ACeq_OA,41.4523109,-88.100304
3733 N CAPITOL AVE89415 PASCO WA 99301,PREMISE,"3733 North Capitol Avenue AVE89415, Pasco, WA 99301-2572, USA",PREMISE,ChIJ74qgjnl-mFQRqKLO1SrV7LE,46.2657294,-119.0822228
17000 DESHLER RDBALTIMORE OH45872-8718 NORTH BALTIMORE OH 45872,PREMISE_PROXIMITY,"17000 Deshler Road OH45872-8718, North Baltimore, OH 45872, USA",PREMISE_PROXIMITY,Ej8xNzAwMCBEZXNobGVyIFJvYWQgT0g0NTg3Mi04NzE4LCBOb3J0aCBCYWx0aW1vcmUsIE9IIDQ1ODcyLCBVU0EiZiJkChQKEgn_bfEb4gM8iBE_8idtNnbjaRIUChIJ_23xG-IDPIgRP_InbTZ242kaFAoSCbeIsDYABDyIEZOBlKQ1XPZ_GhQKEgmFyQ19VwE8iBHvevJs28OQoyIKDZyHihgVW7Mfzg,41.1731868,-83.6783269
2225 N COCKRELL HILL RD DALLAS TX 75212,PREMISE,"2225 North Cockrell Hill Road, Dallas, TX 75212-0001, USA",PREMISE,ChIJu6Xn_BWbToYRQ0n5w2tSw9M,32.7712243,-96.8991106
5699 LAS POSITAS ROAD LIVERMORE CA 94550,PREMISE,"5699 Las Positas Road, Livermore, CA 94551-7805, Civitates Foederatae Americae",PREMISE,ChIJrXiEpDbnj4ARmyremPKYCP8,37.6993016,-121.7275176
4000 YOSEMITE BLVDPO BOX 576008 MODESTO CA 95354,PREMISE,"4000 Yosemite Boulevard BOX 576008, Modesto, CA 95357-1580, USA",PREMISE,ChIJ5xzvWg1VkIAR7E0uaheyO0U,37.6363875,-120.9209348
3150 HIGHWAY 42 LOCUST GROVE GA 30248,PREMISE,"3150 Georgia 42, Locust Grove, GA 30248-3013, USA",PREMISE,ChIJGW1Cz8Fc9IgRIH2VhiX0jBA,33.3632639,-84.1214757
322 3RD ST ELIZABETH NJ 7206,PREMISE,"322 3rd Street, Elizabeth, NJ 07206-2007, USA",PREMISE,ChIJG6HvnXxNwokRW_r5CjoxJos,40.6593746,-74.1807778
614 TERMINAL WAY TERMINAL ISLAND CA 90731,PREMISE,"614 Terminal Way, TERMINAL ISLAND, CA 90731-7453, USA",PREMISE,ChIJpzYe61U23YARmE13CHEMW1U,33.7409584,-118.2539878
1000 VIRGINIA INTERNATION BLVD PORTSMOUTH VA 23703,OTHER,"1000 VIRGINIA INTERNATION BLVD, Portsmouth, VA 23703, USA",OTHER,ChIJ_Z_s_y-fuokRUqKHp9DPjQg,36.903547,-76.3753046
DUMMY ADDRESS 2 GULLEDGE AR 71646,OTHER,"DUMMY ADDRESS, #2, Gulledge, AR 71646, USA",OTHER,ChIJvScTBILVLYYRjoyGNJJ1gD4,33.0709578,-91.8712398
1301 HEINZ DR FREMONT OH 43420,PREMISE,"1301 Heinz Drive, Fremont, OH 43420-8584, USA",PREMISE,ChIJh8pfvc_HO4gRfuxSZqOmQHI,41.363123,-83.0914962
DUMMY AUBREY TX 76227,OTHER,"DUMMY, Aubrey, TX 76227, USA",OTHER,ChIJQR3YBSU1TIYRk3YhsSnxCdU,33.3042834,-96.986118
515 KEHOE BLVD CAROL STREAM IL 60188,PREMISE,"515 Kehoe Boulevard, Carol Stream, IL 60188-1850, USA",PREMISE,ChIJs-yl7k6rD4gRFBglhc_3bcM,41.9105479,-88.1032026
1701 INDUSTRIAL WAY LONGVIEW WA 98632,PREMISE,"1701 Industrial Way, Longview, WA 98632-1055, USA",PREMISE,ChIJwS_qtoprlFQRbT_UvNmIOT8,46.1150548,-122.955954
"2 MAIN ST. GATE 4, GARDEN CITY GARDEN CITY GA 31408",PREMISE,"2 Main Street #4, Garden City, GA 31408-1403, USA",PREMISE,EjEyIE1haW4gU3RyZWV0ICM0LCBHYXJkZW4gQ2l0eSwgR0EgMzE0MDgtMTQwMywgVVNBIh0aGwoWChQKEgmtvRXqQ5_7iBF5KOQeVOkHxhIBNA,32.1184822,-81.1483036
2382 ROUTE 715 SOUTHPA 715 TANNERSVILLE PA 18372,PREMISE,"2382 Pennsylvania 715 SOUTHPA 715, Tannersville, PA 18372, USA",PREMISE,ChIJwbAFoTyLxIkRzz3NK_OQqBc,41.0271112,-75.3235074
107 HOW LNSTE 1 NEW BRUNSWICK NJ 8901,SUB_PREMISE,"107 How Lane #1, New Brunswick, NJ 08901-3655, USA",PREMISE,EjIxMDcgSG93IExhbmUgIzEsIE5ldyBCcnVuc3dpY2ssIE5KIDA4OTAxLTM2NTUsIFVTQSIdGhsKFgoUChIJg4PK3aDGw4kRJzMzsPcNkQwSATE,40.469826,-74.4805419
4411 MIDLAND BLVDP O BOX 428 FORT SMITH AR 72904,PREMISE,"4411 Midland Boulevard BLVDP O BOX 428, Fort Smith, AR 72904, USA",PREMISE,ChIJVwMEe7-0y4cR1xD9T9N1_Ug,35.4205726,-94.3799619
4850 W VERNON AVECANT # 29835 KINSTON NC 28504,PREMISE,"4850 West Vernon Avenue AVECANT # 29835, Kinston, NC 28504, USA",PREMISE,ChIJdUnLUaNMqYkRCH6Nps1RCVI,35.2650708,-77.6645292
1550 W MAIN ST WEST JEFFERSON OH 43162,PREMISE,"1550 West Main Street, West Jefferson, OH 43162-9747, USA",PREMISE,ChIJj49SSCijOIgRFJ8hIv-suiw,39.9429332,-83.3170831
26890 POWERLINE RD HALSEY OR 97348,PREMISE,"26890 Powerline Road, Halsey, OR 97348-9736, USA",PREMISE,ChIJOdIUbYJZwFQRJC-Th1YXIX4,44.3757945,-123.129256
1882 HIGHLAND RD TWINSBURG OH 44087,PREMISE,"1882 Highland Road, Twinsburg, OH 44087-2223, USA",PREMISE,ChIJhQY7LG8fMYgRYh4CqUIRNAs,41.2959378,-81.456025
2590 CAMPBELL BLVD ELLENWOOD GA 30294,PREMISE,"2590 Campbell Boulevard, Ellenwood, GA 30294-3424, USA",PREMISE,ChIJo6HUHwf_9IgRoE86lzdiAH0,33.6195,-84.3056269
601 E 152ND ST CLEVELAND OH 44110,PREMISE,"601 East 152nd Street, Cleveland, OH 44110-2302, USA",PREMISE,ChIJy36tLeT-MIgRzSZByy_dvGI,41.5646204,-81.5754342
4750 WENDLAND RD TEMPLE TX 76504,PREMISE,"4750 Wendland Road, Temple, TX 76504-2614, USA",PREMISE,ChIJ1ZzVjFppRYYREI_i7_y5omU,31.1520405,-97.3614468
18180 GATEWAY DR VICTORVILLE CA 92394,PREMISE,"18180 Gateway Drive, Victorville, CA 92394-7979, USA",PREMISE,ChIJsQNpEjhww4ARAAlyPIuAH3M,34.5832772,-117.395798
1650 SOUTH CENTRAL AVENUE COMPTON CA 90220,PREMISE,"1650 South Central Avenue, Compton, CA 90220-5317, USA",PREMISE,ChIJq0kBwiPLwoARzXFMkg_5vl0,33.8791411,-118.2464493
5995 W 300 S SALT LAKE CITY UT 84104,PREMISE,"5995 West 300 South, Salt Lake City, UT 84104-6005, USA",PREMISE,ChIJ-_Gbg27yUocRzgL_5CwexQg,40.7585724,-112.032174
121 N RD(570) 769-6900) MCELHATTAN PA 17748,OTHER,"121 N RD 570) 769-6900, McElhattan, PA 17748, USA",OTHER,ChIJUdg7vvD5zokRzm0GEp2Wc5w,41.1562833,-77.3546952
1897 ALLEN RD MACON GA 31216,PREMISE,"1897 Allen Road, Macon, GA 31216-5825, USA",PREMISE,ChIJpaysESv984gRu_POnhpjLV8,32.7459665,-83.6482836
24405 KRAMERIA AVE MORENO VALLEY CA 92551,PREMISE,"24405 Krameria Avenue, Moreno Valley, CA 92551-9529, USA",PREMISE,ChIJxQws78an3IAR63UhGhkFpno,33.8804175,-117.2381726
1901 RAGU DR OWENSBORO KY 42303,PREMISE,"1901 Ragu Drive, Owensboro, KY 42303-1421, Amerika",PREMISE,ChIJga3ztqa6b4gR906taW6ylh8,37.7683378,-87.0770986
2314 S LAUDERDALE ST MEMPHIS TN 38106,PREMISE,"2314 South Lauderdale Street, Memphis, TN 38106-8709, USA",PREMISE,ChIJU2MmZ1V81YcRP_xonzBpIgY,35.0831968,-90.0381953
2351 TREMONT ROAD SAVANNAH GA 31405,PREMISE,"2351 Tremont Road, Savannah, GA 31405-1565, USA",PREMISE,ChIJ8QdjS5Sf-4gRUsZu47Y2iWo,32.0727126,-81.144545
3000 VIA MONDO RANCHO DOMINGUEZ CA 90221,PREMISE,"3000 East Vía Mondo, East Compton, CA 90221-5413, EE. UU.",PREMISE,ChIJUUf4rVTLwoARhBlZ0unFbfU,33.8711509,-118.2108118
13515 48TH ST ESTE 100 SUMNER WA 98390,SUB_PREMISE,"13515 48th Street East ESTE 100, Sumner, WA 98390-9217, USA",PREMISE,ChIJ8Xz7sHD5kFQRI_CX04gV_lg,47.2149712,-122.2506907
100 WOODWARD RD SE ALBUQUERQUE NM 87102,PREMISE,"100 Woodward Road Southeast, Albuquerque, NM 87102-5131, USA",PREMISE,ChIJTcvXD10MIocRQZzVlj4t9CY,35.0482501,-106.65337
2 MAIN ST GARDEN CITY GA 31408,PREMISE,"2 Main Street, Garden City, GA 31408-1403, USA",PREMISE,ChIJrb0V6kOf-4gReSjkHlTpB8Y,32.1184822,-81.1483036
4555 MOUNT PISGAH RD YORK PA 17406,PREMISE,"4555 Mount Pisgah Road, YORK, PA 17406-8209, USA",PREMISE,ChIJD1PId0mEyIkRRSSM6qsGgz0,39.9570905,-76.5884648
27352 RIVER BLUFF AVE REDLANDS CA 92374,PREMISE,"27352 River Bluff Avenue, Redlands, CA 92374-1510, USA",PREMISE,ChIJ_-M5Wu6q3IARNdinJKgmhHo,34.0881787,-117.20472
"2404 W PIONEER PKWY, GRAND PRAIRIE TX 75051",PREMISE,"2404 West Pioneer Parkway, Grand Prairie, TX 75051-3528, USA",PREMISE,ChIJC0TgajCGToYRpkmIxAZ5RnQ,32.7142344,-97.0400985
2042 AIRPORT CT SE MARIETTA GA 30060,PREMISE,"2042 Airport Court Southeast, Marietta, GA 30060-9261, Stati Uniti",PREMISE,ChIJZzqk6RgR9YgRvdiAvIOioFY,33.9041461,-84.4994815
CARR MONTERREY-COLOMBIA KM16.5 SALINAS VICTORIA NL 66616,OTHER,"CARR MONTERREY-COLOMBIA KM16.5, 66616 Salinas Victoria, N.L., Mexico",OTHER,ChIJ5eqQNHqLYoYRC38F3TEhOs0,25.9662105,-100.2908632
1001 MCCLURE INDUSTRIAL DR JEFFERSON GA 30549,PREMISE,"1001 MCCLURE INDUSTRIAL DR, Jefferson, GA 30549-1700, USA",PREMISE,ChIJtwm_gln99YgR0luSeOszB2s,34.1780204,-83.5969951
1001 E MAIN SILOAM SPRINGS AR 72761,PREMISE,"1001 East Main Street, Siloam Springs, AR 72761-2927, USA",PREMISE,ChIJHz8xNZuiyYcRl3WCghda3z0,36.1844257,-94.5315834
12020 GENERAL MILTON LAREDO TX 78045,PREMISE,"12020 General Milton Drive, Laredo, TX 78045, USA",PREMISE,ChIJ_-6Ze5_fYIYRhd9MGaRn23Y,27.6213262,-99.5038769
1600 W AGUA MANSA RDDC 6561 COLTON CA 92324,PREMISE,"1600 West Agua Mansa Road RDDC 6561, Colton, CA 92324, Na Stàitean Aonaichte",PREMISE,ChIJ1WU2q22t3IAR7bbESCc_Qmc,34.0548734,-117.341345
214 BRISBANE RD PEARLAND TX 77581,OTHER,"214 BRISBANE RD, Pearland, TX 77581, USA",OTHER,ChIJlYMcAQ6RQIYR4ohFmwloS7g,29.5800207,-95.2788926
3660 HIGHWAY 411 NE WHITE GA 30184,PREMISE,"3660 U.S. 411 Northeast, White, GA 30184-2427, USA",PREMISE,ChIJceoaycxb9YgRBVIjVf-j5mY,34.2917786,-84.7311014
1055 E NORTH AVE FRESNO CA 93725,PREMISE,"1055 East North Avenue, Fresno, CA 93725-1914, USA",PREMISE,ChIJF3u_HvJflIARrab7yquhtjY,36.6910127,-119.7711944
"3004 YADKIN RD CHESAPEAKE ,IC VA 23323",PREMISE,"IC, 3004 Yadkin Road, Chesapeake, VA 23323-2206, USA",PREMISE,ChIJ2aiNSfijuokRdbvdR9nyX-w,36.765952,-76.3537342
1000 S 1ST AVE COATESVILLE PA 19320,PREMISE,"1000 South 1st Avenue, Coatesville, PA 19320-4039, USA",PREMISE,ChIJVxqLO85bxokRZuIsOhjbgUU,39.9689846,-75.8195757
"145 TALMADGE ROAD EDISON ,MI NJ 8817",PREMISE,"145 Talmadge Road, Edison, MI 08817-2842, USA",PREMISE,ChIJA_LsheK3w4kRxvBynMPhKIE,40.5352301,-74.3913684
1701 WESTINGHOUSE BLVD CHARLOTTE NC 28273,PREMISE,"1701 Westinghouse Boulevard, Charlotte, NC 28273-6383, USA",PREMISE,ChIJT7xDfM6bVogRqy657TqVzAE,35.1252157,-80.936844
9950 CALABASH AVE FONTANA CA 92335,PREMISE,"9950 Calabash Avenue, Fontana, CA 92335-5210, USA",PREMISE,ChIJef2a8uJKw4ARuBd6R24LxZc,34.0727631,-117.5037184
11263 OLEANDER AVELAX9 FONTANA CA 92337,PREMISE,"11263 Oleander Avenue, Fontana, CA 92337-7441, USA",PREMISE,ChIJiQzV47Cz3IARebPsrSjMnC4,34.0514674,-117.4465393
5990 N CAJON BLVDSBD3 SAN BERNARDINO CA 92407,PREMISE,"5990 Cajon Boulevard BLVDSBD3, San Bernardino, CA 92407-1639, USA",PREMISE_PROXIMITY,EkE1OTkwIENham9uIEJvdWxldmFyZCBCTFZEU0JEMywgU2FuIEJlcm5hcmRpbm8sIENBIDkyNDA3LTE2MzksIFVTQSIxEi8KFAoSCbkmjKtAQcOAESzVIcI4nP84EOYuKhQKEglviRunT0HDgBERHkL8XAberw,34.3133957,-117.4790696
17569 104TH AVE SURREY BC V4N3M4,PREMISE,"17569 104 Avenue, Surrey, BC V4N 3M4, Canada",PREMISE,ChIJH_TDc8bWhVQRSw2833fp0dM,49.1923848,-122.736421
26 STAUFFER INDUSTRIAL PK TAYLOR PA 18517,PREMISE,"26 Stauffer Industrial Park, Taylor, PA 18517, USA",PREMISE,ChIJnVt6ml3fxIkRuJx9ColR1gM,41.4007487,-75.7058576
500 NORTH ST WINDSOR LOCKS CT 6096,PREMISE,"500 North Street, Windsor Locks, CT 06096-1147, USA",PREMISE,ChIJXXdsDzX85okR2lLaa0A-tzo,41.9420056,-72.6602037
11100 MCCORMICK RD HUNT VALLEY MD 21031,PREMISE,"11100 McCormick Road, Hunt Valley, MD 21031-1107, USA",PREMISE,ChIJU72rKLwTyIkRKpbg_u8FOLo,39.4819719,-76.660422
3800 N DIVISION ST MORRIS IL 60450,PREMISE,"3800 North Division Street, Morris, IL 60450-9475, USA",PREMISE,ChIJm72E06OZDogRyoGYDKxwlig,41.3943253,-88.4271287
500 BISON PARKWAY BUFFALO NY 14227,PREMISE,"500 Bison Parkway, Buffalo, NY 14227-1038, USA",PREMISE,ChIJQy0I3lcM04kRr9YyTIxk6Rc,42.8933032,-78.7830946
612 ANTRIM COMMONS DR GREENCASTLE PA 17225,PREMISE,"612 Antrim Commons Drive, Greencastle, PA 17225-1617, USA",PREMISE,ChIJMwSQmd2RyYkRp5w_fQtpP1s,39.7606076,-77.7374723
245 N VINELAND AVE CITY OF INDUSTRY CA 91746,PREMISE,"245 North Vineland Avenue, City of Industry, CA 91746-2319, USA",PREMISE,ChIJwXgIsh_XwoARMo6GRn5uRBs,34.0498999,-117.9926272
7021 N WHIRLPOOL DR TULSA OK 74117,PREMISE,"7021 North Whirlpool Drive, Tulsa, OK 74117-1310, USA",PREMISE,ChIJEUAS1rfvtocRAmUmjwktc5o,36.2570457,-95.9189071
1014 DIXIE STREET CARROLLTON GA 30119,PREMISE_PROXIMITY,"1014 Dixie Street, Carrollton, GA 30117, USA",PREMISE_PROXIMITY,EiwxMDE0IERpeGllIFN0cmVldCwgQ2Fycm9sbHRvbiwgR0EgMzAxMTcsIFVTQSIxEi8KFAoSCUPeSXYHL4uIEapBcuvIjN3XEPYHKhQKEgn5DJsrBC-LiBEt16Jp3KHzyA,33.5651912,-85.0727039
125 JAYCEE DRIVE HAZLETON PA 18202,PREMISE,"125 Jaycee Drive, Hazleton, PA 18202-1145, USA",PREMISE,ChIJJfSuk8KjxYkR5gpzVBTaeyA,40.9739811,-76.0172494
14141 ALONDRA BLVD SANTA FE SPRINGS CA 90670,PREMISE,"14141 Alondra Boulevard, Santa Fe Springs, CA 90670-5804, USA",PREMISE,ChIJXzebsJAs3YARFuoHYxFeCvU,33.888906,-118.0307473
3485 WINEVILLE RD. JURUPA VALLEY CA 91752,PREMISE,"3485 Wineville Road, Jurupa Valley, CA 91752, USA",PREMISE,ChIJrz0601m13IART3LZmkASkCM,34.023089,-117.5465578
10240 OLD DOWD ROADCLT2 CHARLOTTE NC 28214,PREMISE,"10240 Old Dowd Road, Charlotte, NC 28214-8082, USA",PREMISE,ChIJofl6OE-9VogRceNhNN-NYYE,35.2456963,-80.9966746
8822 ETIWANDA AVE RANCHO CUCAMONGA CA 91739,PREMISE,"8822 Etiwanda Avenue, Rancho Cucamonga, CA 91739-9662, EE. UU.",PREMISE,ChIJdT09wmlKw4ARGxldtHXwLNs,34.0937303,-117.5272542
2120 NC HIGHWAY 71 NCANT # 45523 MAXTON NC 28364,PREMISE,"2120 North Carolina 71 NCANT # 45523, Maxton, NC 28364, USA",PREMISE,ChIJVU1DvFwqq4kRb9aoYiJ4SmU,34.7720416,-79.3257834
8751 RAYO AVE1 SOUTH GATE CA 90280,PREMISE,"8751 Rayo Avenue AVE1, South Gate, CA 90280-3632, Amerika",PREMISE,ChIJ-1DNZiPMwoARw2HeuZmDPys,33.9527849,-118.1769037
20212 S RANCHO WAYUNIT A COMPTON CA 90220,PREMISE,"20212 South Rancho Way A, Compton, CA 90220-6310, USA",PREMISE,EjUyMDIxMiBTb3V0aCBSYW5jaG8gV2F5IEEsIENvbXB0b24sIENBIDkwMjIwLTYzMTAsIFVTQSIdGhsKFgoUChIJAZO8gA013YARBGKUamojfz8SAWE,33.8478123,-118.2222733
50 ROUTE 67 MECHANICVILLE NY 12118,PREMISE,"50 New York 67, Mechanicville, NY 12118, Etazonia",PREMISE,ChIJme9eugsX3okReGRNWbr934g,42.9148,-73.7091301
709 PAPERMILL RD DUBLIN GA 31021,PREMISE,"709 Papermill Road, Dublin, GA 31027-2494, USA",PREMISE,ChIJYazBLpjg8IgRt9ThfuWPAqk,32.5048644,-82.8438681
3960 E US HIGHWAY 90 SEGUIN TX 78155,PREMISE,"3960 East U.S. Highway 90, Seguin, TX 78155-2077, USA",PREMISE,ChIJ7_0go_u2XIYRA5HshKl1PYw,29.6074821,-97.9087229
657 W NANCE STAMAZON XLX2 PERRIS CA 92571,PREMISE,"657 West Nance Street STAMAZON XLX2, Perris, CA 92571, USA",PREMISE,ChIJVebvGTSh3IAR8U0rp5n4BhY,33.8543137,-117.2392917
4455 E MUSTARD WAYCANT # 7063 SPRINGFIELD MO 65803,PREMISE,"4455 East Mustard Way WAYCANT # 7063, Springfield, MO 65803, USA",PREMISE,ChIJhw4cx459z4cRmQCq0_dMnFs,37.2476421,-93.2046454
"1410 UNITED DR SHIPPENSBURG ,CU PA 17257",PREMISE,"CU, 1410 United Drive, Shippensburg, PA 17257-9552, USA",PREMISE,ChIJTd6IPNwLyYkR5SPrL7gnQAk,40.0099328,-77.5354242
5090 WILLIM MILLS ST JACKSONVILLE FL 32226,PREMISE,"5090 William Mills Street, Jacksonville, FL 32226-3001, USA",PREMISE,ChIJKSLK3AKz5YgRcl1zDr3Rikg,30.3924459,-81.5474977
845 W 800 N LOGAN UT 84321,PREMISE,"845 West 800 North, Logan, UT 84321-7838, USA",PREMISE,ChIJl5Kx8vd9VIcRhJYgPFZBVYk,41.7473341,-111.8554612
2001 E MCCOMAS ST BALTIMORE MD 21230,PREMISE,"2001 East McComas Street, Baltimore, MD 21230-5031, USA",PREMISE,ChIJ7zATAqIDyIkRS-Mts8ocROM,39.2641796,-76.589221
8800 GUERNSEY INDUSTRIAL CAMBRIDGE OH 43725,PREMISE,"8800 Guernsey Industrial Boulevard, Cambridge, OH 43725-8912, USA",PREMISE,ChIJLeUVDUTKN4gR-mi0fNtZ_uk,39.9724056,-81.5766046
AVE INDUSTRIAS #108FRAC INDUSTRIAL PIMSA APODACA NL 66603,PREMISE_PROXIMITY,"Avenida Industrias 108FRAC, INDUSTRIAL PIMSA, 66603 Ciudad Apodaca, N.L., México",PREMISE_PROXIMITY,ElFBdmVuaWRhIEluZHVzdHJpYXMgMTA4RlJBQywgSU5EVVNUUklBTCBQSU1TQSwgNjY2MDMgQ2l1ZGFkIEFwb2RhY2EsIE4uTC4sIE3DqXhpY28iMBIuChQKEgklrnJ2U-lihhHyUzEkM-jtWBBsKhQKEgkldqukU-lihhE44vKJxkwyAQ,25.7767424,-100.1639543
98 CABOT BLVD E LANGHORNE PA 19047,PREMISE,"98 Cabot Boulevard East, Langhorne, PA 19047-1802, USA",PREMISE,ChIJs5gTlE9RwYkRgUPkmf8CxZY,40.1904916,-74.842984
33201 DOWE AVE UNION CITY CA 94587,PREMISE,"33201 Dowe Avenue, Union City, CA 94587-2000, USA",PREMISE,ChIJeR85pJiVj4ARq9MMQu4QegU,37.5993032,-122.0448862
"3025 GUM CTSTE 1 CHESAPEAKE ,IC VA 23321",PREMISE,"IC, 3025 Gum Court #1, Chesapeake, VA 23321-1546, USA",PREMISE,EjVJQywgMzAyNSBHdW0gQ291cnQgIzEsIENoZXNhcGVha2UsIFZBIDIzMzIxLTE1NDYsIFVTQSIdGhsKFgoUChIJeTDYwBWguokRcx50aLxFzXISATE,36.8403147,-76.4353139
101 LIFES GOOD WAY CLARKSVILLE TN 37040,PREMISE,"101 LIFES GOOD WAY, Clarksville, TN 37040-1720, USA",OTHER,ChIJF6dpUDjZZIgRje5mE7MxMjo,36.4722803,-87.3612205
9800 72ND AVEKENOSHA PLEASANT PRAIRIE WI 53158,PREMISE,"9800 72nd Avenue, Pleasant Prairie, WI 53158-2817, USA",PREMISE,ChIJGZtWkH-KD4gRxuQ4lsxZmEg,42.5311001,-87.896085
4875 N SUSQUEHANNA TRL YORK PA 17406,PREMISE,"4875 North Susquehanna Trail, York, PA 17406-8498, USA",PREMISE,ChIJP2mCSEGSyIkRcM_kTFbRpPI,40.0650806,-76.7595646
70 JEWETT CITY RD TAFTVILLE CT 6380,PREMISE,"70 Jewett City Road, Taftville, CT 06380-1246, USA",PREMISE,ChIJEcgfSit35okR80X3fIAA3FM,41.5611158,-72.0464461
"4340 IH-35 NLOT7, SUITE 100 SAN ANTONIO TX 78218",PREMISE,"4340 North Interstate 35 Frontage Road SUITE 100, San Antonio, TX 78218, EE. UU.",PREMISE,ElA0MzQwIE5vcnRoIEludGVyc3RhdGUgMzUgRnJvbnRhZ2UgUm9hZCBTVUlURSAxMDAsIFNhbiBBbnRvbmlvLCBUWCA3ODIxOCwgRUUuIFVVLiIhGh8KFgoUChIJb3ZVeFqWXIYRZEFbMY-GeycSBTcgMTAw,29.6640659,-98.1698669
8050 HERITAGE PARKWAY BRAMPTON ON L6Y0C9,PREMISE,"8050 Heritage Road, Brampton, ON L6Y 0C9, Canada",PREMISE,ChIJB-W60RhrK4gRkjYjDuIo1eM,43.6185667,-79.790395
601 CHELSEA RD ABERDEEN MD 21001,PREMISE,"601 Chelsea Road, Aberdeen, MD 21001-4306, USA",PREMISE,ChIJc7Ez9aTpx4kRFfOE2UxKaGs,39.4513779,-76.208439
12657 ULINE WAY KENOSHA WI 53144,PREMISE,"12657 Uline Way, Kenosha, WI 53144-1111, USA",PREMISE,ChIJXyhN34hjBYgRLWIABIaVtTU,42.6072807,-87.9607407
12801 EXCELSIOR DRIVEAMAZON ONLY SANTA FE SPRINGS CA 90670,PREMISE,"12801 Excelsior Drive ONLY, Santa Fe Springs, CA 90670, USA",PREMISE,ChIJqzWawtss3YAR3C83CE2J7KI,33.8960546,-118.0586772
30 ARROWHEAD INDUSTRIAL BLVD SAINT PETERS MO 63376,PREMISE,"30 Arrowhead Industrial Boulevard, St. Peters, MO 63376-1076, USA",PREMISE,ChIJ-Tjdf3nX3ocRyoyFBvceK3w,38.81102,-90.644076
2202 MILLIKEN AVE ONTARIO CA 91761,PREMISE,"2202 Milliken Avenue, Ontario, CA 91761-2307, USA",PREMISE,ChIJw9Gv_1I1w4AR6tgM6Xi6gW4,34.0335886,-117.5589956
8495 116TH ST PLEASANT PRAIRIE WI 53158,PREMISE,"8495 116th Street, Pleasant Prairie, WI 53158-3000, USA",PREMISE,ChIJfxRJbkSKD4gR6AOxJVYVAr4,42.5067834,-87.9071229
7895 REDWOOD AVE FONTANA CA 92336,PREMISE,"7895 Redwood Avenue, Fontana, CA 92336-1618, USA",PREMISE,ChIJp4bV7PFLw4ARDXcTmOrFLz0,34.1113748,-117.4830736
1886 WILLIAMS ROAD COLUMBUS OH 43207,PREMISE,"1886 Williams Road, Columbus, OH 43207-5113, USA",PREMISE,ChIJuU0yIamHOIgRc5hY-HzB5Gw,39.8894675,-82.9434669
3329 THOROUGHBRED DR LOCKBOURNE OH 43137,PREMISE_PROXIMITY,"3329 Thoroughbred Drive, Lockbourne, OH 43137, USA",PREMISE_PROXIMITY,EjIzMzI5IFRob3JvdWdoYnJlZCBEcml2ZSwgTG9ja2JvdXJuZSwgT0ggNDMxMzcsIFVTQSIxEi8KFAoSCc2XB7O0gTiIEWGsHaPAW2suEIEaKhQKEglfw0lNS4A4iBEJKAmyWTy6bg,39.7937143,-82.9501904
3880 SOUTHWEST BLVD GROVE CITY OH 43123,PREMISE,"3880 Southwest Boulevard, Grove City, OH 43123-9071, USA",PREMISE,ChIJ-X4NGh-bOIgRZIDVdL8abG0,39.8955011,-83.1018917
1620 SOUTH WILMINGTON AVE COMPTON CA 90220,PREMISE,"1620 South Wilmington Avenue, Compton, CA 90220-5115, USA",PREMISE,ChIJMVNPWDnLwoARBYifT1kxJM0,33.8795061,-118.235302
107 TOM STARLING RDSTE 100 FAYETTEVILLE NC 28306,PREMISE,"107 Tom Starling Road #100, Fayetteville, NC 28306-9566, USA",PREMISE,EjwxMDcgVG9tIFN0YXJsaW5nIFJvYWQgIzEwMCwgRmF5ZXR0ZXZpbGxlLCBOQyAyODMwNi05NTY2LCBVU0EiHxodChYKFAoSCZvcC29aEauJEZ4BRhzwRQ0GEgMxMDA,34.9621867,-78.9128644
550 OAK RIDGE RDAVP1 HAZLETON PA 18202,PREMISE,"550 Oak Ridge Road, Hazleton, PA 18202-9361, USA",PREMISE,ChIJuXfG4dqixYkRQHahrMM0o0I,40.9220055,-76.0489818
440 N PIONEER AVESTE 300 WOODLAND CA 95776,SUB_PREMISE,"440 North Pioneer Avenue #300, Woodland, CA 95776-6139, Stati Uniti",SUB_PREMISE,ChIJAQBA6QzRhIARuE2kISuyUm8,38.692847,-121.7440352
"28501 HIGHWAY BLVD KATY,HA TX 77494",PREMISE,"28501 Highway Boulevard, Katy, HA TX 77494-1388, USA",PREMISE,ChIJVR_gxvAkQYYR5vQIeLeyhHc,29.7847939,-95.8626089
31031 HIGHWAY 90 E BROOKSHIRE TX 77423,PREMISE,"31031 US 90 East, Brookshire, TX 77423-2857, USA",PREMISE,ChIJAfkPmRk7QYYRyLVjwT7TfHU,29.7843167,-95.9125785
20500 S ALAMEDA ST CARSON CA 90810,PREMISE,"20500 South Alameda Street, Carson, CA 90810-1103, USA",PREMISE,ChIJpR_Fcpc03YARR7-NXrwXU10,33.84533,-118.21898
5200 STERILITE DR ENNIS TX 75119,PREMISE,"5200 Sterilite Drive, Ennis, TX 75119-5438, USA",PREMISE,ChIJ_SppJwzaToYRiIZMylSHrw8,32.2922334,-96.5854449
1255 HOWELL RD DUNCAN SC 29334,PREMISE,"1255 Howell Road, Duncan, SC 29334-8860, USA",PREMISE,ChIJta-xwK6DV4gR3sk6kQ2kdOE,34.9064167,-82.0909263
200 OLD FLORENCE RD DARLINGTON SC 29532,PREMISE,"200 Old Florence Road, Darlington, SC 29532-4162, USA",PREMISE,ChIJty3ooRBvVYgRSoyaG-n8Omw,34.2974759,-79.8589079
8000 TUCKASEEGEE ROADCLT4 CHARLOTTE NC 28214,PREMISE,"8000 Tuckaseegee Road, Charlotte, NC 28214-2633, USA",PREMISE,ChIJYZhiq-WjVogR_4GlFsmUMv0,35.2439816,-80.9608735
10 SHERIDAN DR TONAWANDA NY 14150,PREMISE,"10 Sheridan Drive, Tonawanda, NY 14150-7752, Etazonia",PREMISE,ChIJA3Vghpls04kRIEP2FsNfgNA,42.9695315,-78.919719
165 S CO RD 300 W FRANKFORT IN 46041,PREMISE,"165 South County Road 300 West, Frankfort, IN 46041-8766, USA",PREMISE,ChIJ09VYFMJqE4gRPA5fT2aD1VQ,40.2845334,-86.5612966
12500 I STWHSE 30 OMAHA NE 68137,PREMISE,"12500 I Street #30, Omaha, NE 68137-1236, USA",PREMISE,Ei0xMjUwMCBJIFN0cmVldCAjMzAsIE9tYWhhLCBORSA2ODEzNy0xMjM2LCBVU0EiHhocChYKFAoSCYt_RjB185OHEcjReqXEu-YcEgIzMA,41.218927,-96.1084729
327 WALLACE RD MARIETTA GA 30062,PREMISE,"327 Wallace Road, Marietta, GA 30062-3573, USA",PREMISE,ChIJ6wdl2fMT9YgRGsQ-SV9BnhQ,33.959065,-84.5145179
10 SONNY PERDUE DR GARDEN CITY GA 31408,PREMISE,"10 Sonny Perdue Drive, Garden City, GA 31408-8083, USA",PREMISE,ChIJuUBr6bah-4gRXgFZt3ykWaw,32.1005356,-81.1864462
1535 W 4TH ST SAN BERNARDINO CA 92410,PREMISE,"1535 West 4th Street, San Bernardino, CA 92411-2674, USA",PREMISE,ChIJMXfuBt1Sw4AR1fW-PqhtjRY,34.1059076,-117.3237033
771 WATSON CENTER ROAD1 CARSON CA 90745,PREMISE,"771 East Watson Center Road, Carson, CA 90745-4109, USA",PREMISE,ChIJ958DZAY13YARxom8rrMKEac,33.8214198,-118.2617986
801 W BRYN MAWR AVE ITASCA IL 60143,PREMISE,"801 Bryn Mawr Avenue, Itasca, IL 60143-1502, USA",PREMISE,ChIJezse-uOtD4gRGsbV8Zkx-58,41.9772669,-88.0263728
13333 N RIVERGATE BLVD PORTLAND OR 97203,PREMISE,"13333 North Rivergate Boulevard, Portland, OR 97203-6603, USA",PREMISE,ChIJIRtiZ9OplVQRRw0OlEgCrAQ,45.6203095,-122.7851158
3 WALKER WAY WEST JEFFERSON OH 43162,PREMISE,"3 Walker Way, West Jefferson, OH 43162-9406, USA",PREMISE,ChIJ63xsCq2kOIgRWZOEWTx1PiQ,39.951993,-83.345303
3770 E WASHINGTON LOS ANGELES CA 90023,PREMISE,"3770 East Washington Boulevard, Los Angeles, CA 90058-8125, USA",PREMISE,ChIJCVpbMCXPwoARzo8kyZ0qH8Q,34.0084946,-118.1921277
901 E 233RD ST CARSON CA 90745,PREMISE,"901 East 233rd Street, Carson, CA 90745-6204, USA",PREMISE,ChIJIQ3Nn6k13YARUp3SQDNei-Y,33.8148596,-118.2589662
870 TAYLOR RD ROMEOVILLE IL 60446,PREMISE,"870 West Taylor Road, Romeoville, IL 60446-1798, USA",PREMISE,ChIJ67zRKoZeDogRvexUutotxbM,41.6273632,-88.1028974
180 N MOUNT ZION RD LEBANON IN 46052,PREMISE,"180 North Mount Zion Road, Lebanon, IN 46052-8329, USA",PREMISE,ChIJMaYqOMVOE4gRZkhFcLY8a-A,40.0405277,-86.4881247
1302 WHARTON WHEEMS BLVD LA PORTE TX 77571,PREMISE,"1302 Wharton Weems Boulevard, La Porte, TX 77571-2301, USA",PREMISE,ChIJh5Eg08ZhP4YRGJyi761HrU4,29.6387541,-95.0333399
705 N. LINCOLN SPRING HILL KS 66083,PREMISE,"705 North Lincoln Street, Spring Hill, KS 66083-8840, USA",PREMISE,ChIJ0_1xJCW6wIcR8HTkRA9rs3M,38.750506,-94.8199879
53 SUMMIT LOCK RD WESTFIELD MA 1085,PREMISE,"53 Summit Lock Road, Westfield, MA 01085-9777, USA",PREMISE,ChIJAQjLniYg54kRDjsAdNbNbm8,42.1723085,-72.7411182
2702 SUMMIT AVENUE RIALTO CA 92377,PREMISE,"2702 Summit Avenue, Rialto, CA 92377-4915, USA",PREMISE,ChIJRchqn5xOw4AREuTbV5jvFo4,34.1523421,-117.4209305
700 FISH HOUSE RD KEARNY NJ 7032,PREMISE,"700 Fish House Road, Kearny, NJ 07032-4302, USA",PREMISE,ChIJ3aGVrtpWwokRn9TiVRqvBNs,40.7414916,-74.0877868
335 HESS STPO BOX DRAWER 828 MADRAS OR 97741,PREMISE,"335 HESS STPO BOX DRAWER 828, Madras, OR 97741-0828, USA",OTHER,ChIJp0i7cYrpvlQRgvodXV4U6Mc,44.6334544,-121.1294872
903 WOODS RD CAMBRIDGE MD 21613,PREMISE,"903 Woods Road, Cambridge, MD 21613-9469, USA",PREMISE,ChIJ33Ne-T1KuIkRM7zELUOEkGg,38.5511503,-76.0620353
2085 TALLEYRAND AVEBLDG B JACKSONVILLE FL 32206,SUB_PREMISE,"2085 Talleyrand Avenue B, Jacksonville, FL 32206-4247, USA",PREMISE,EjoyMDg1IFRhbGxleXJhbmQgQXZlbnVlIEIsIEphY2tzb252aWxsZSwgRkwgMzIyMDYtNDI0NywgVVNBIh0aGwoWChQKEglLs3oPtbbliBGpqzxzX118HRIBYg,30.3488719,-81.6234162
4850 EDGEWOOD RD SW CEDAR RAPIDS IA 52404,PREMISE,"4850 Edgewood Road Southwest, Cedar Rapids, IA 52404, USA",PREMISE,ChIJdQDB9PH45IcR4YxZODIqz5g,41.9318654,-91.7237736
16200 AVENUE OF CHAMPIONS COVINGTON GA 30014,PREMISE,"16200 Avenue of Champions, Covington, GA 30014-6456, USA",PREMISE,ChIJew7rFz8z9IgRykXzWC-krog,33.6284391,-83.8259156
1650 MARION AGOSTASTATE ROUTE 95 WEST MARION OH 43302,PREMISE,"1650 Marion-Agosta Road, Marion, OH 43302-9576, USA",PREMISE,EjMxNjUwIE1hcmlvbi1BZ29zdGEgUm9hZCwgTWFyaW9uLCBPSCA0MzMwMi05NTc2LCBVU0EiHhocChYKFAoSCesO9mr6GTmIERkhrCM7Y6skEgI5NQ,40.5863183,-83.1717251
2704 SUMMIT AVENUE RIALTO CA 92377,PREMISE,"2704 Summit Avenue, Rialto, CA 92377, USA",PREMISE,ChIJC0NM45tOw4ARjPSBbqs_iX4,34.151027,-117.4259731
"401 INDEPENDENCE RDABE8 FLORENCE,BU NJ 8518",PREMISE,"401 Independence Road, BU, NJ 08518-2200, USA",PREMISE,ChIJ-xCqXYJPwYkR7ES5nt0psQc,40.1083853,-74.8007365
4800 NORTH KIMBALL DR NORTH KANSAS CITY MO 64116,PREMISE,"4800 N Kimball Drive, North Kansas City, MO 64161-9547, USA",PREMISE,ChIJPc6ynYD-wIcR919nThawxRc,39.1562412,-94.4399264
101 1ST ST RUFUS OR 97050,PREMISE,"101 1st Street, Rufus, OR 97050, USA",PREMISE,ChIJverTVbKAvVQRgSlShelsLIY,45.6955883,-120.7355265
3311 N TORREY RD FLINT MI 48507,PREMISE,"3311 North Torrey Road, Flint, MI 48507-3251, USA",PREMISE,ChIJqUjOW0N4I4gRmLqpMWkyDq8,42.9794563,-83.7312863
266 INDUSTRIAL PARK RD HARTWELL GA 30643,PREMISE,"266 Industrial Park Road, Hartwell, GA 30643-7343, USA",PREMISE,ChIJ5dAHu7qBWIgRoO50pi5fvWU,34.3387197,-82.9617413
175 DEL STOVER DRIVE BYHALIA MS 38611,PREMISE,"175 DEL STOVER DRIVE, Byhalia, MS 38611-2313, USA",OTHER,ChIJU721fea_f4gRTq7sOTVUli0,34.8723179,-89.6906396
770 N GUILD AVEWHSE 72 LODI CA 95240,PREMISE,"770 North Guild Avenue #72, Lodi, CA 95240-0861, USA",PREMISE,EjQ3NzAgTm9ydGggR3VpbGQgQXZlbnVlICM3MiwgTG9kaSwgQ0EgOTUyNDAtMDg2MSwgVVNBIh4aHAoWChQKEgl5rn0l7J-agBGfSU3QY4FZIBICNzI,38.1395302,-121.2469625
25501 GATEWAY BLVD TRACY CA 95377,PREMISE,"25501 Gateway Boulevard, Tracy, CA 95377-8631, USA",PREMISE,ChIJa7LcadIjkIARfYx19doQqyQ,37.7201147,-121.5225314
1250 WEST NORTH ST DOVER DE 19904,PREMISE,"1250 West North Street, Dover, DE 19904-7756, USA",PREMISE,ChIJsbOQlKR8x4kRzuJhleCR4Ww,39.1493473,-75.5440463
151 TURNER CT BOWLING GREEN KY 42101,PREMISE,"151 Turner Court, Bowling Green, KY 42101-5319, USA",PREMISE,ChIJ3yUr-WvpZYgRLVRPGpfjNBs,36.9614839,-86.4840175
1981 S WESTPORT DR PORT ALLEN LA 70767,PREMISE,"1981 South Westport Drive, Port Allen, LA 70767-6128, USA",PREMISE,ChIJhyTO5xEeJIYRNoM4wN9mrQI,30.4424029,-91.2257226
333 E. CARRIE SAINT LOUIS MO 63147,PREMISE,"333 East Carrie Avenue, St. Louis, MO 63147-3013, USA",PREMISE,ChIJz59Byo5M34cRzRu-68bpgN4,38.6892545,-90.2116531
2820 16TH STREET NORTH BERGEN NJ 7047,PREMISE,"2820 16th Street, North Bergen, NJ 07047-1541, USA",PREMISE,ChIJ8emS86FXwokRfADDfnK0O5I,40.7698045,-74.0547083
860 W CARVER RD TEMPE AZ 85283,PREMISE,"860 West Carver Road, Tempe, AZ 85284-5263, Stany Zjednoczone",PREMISE,ChIJASjwy3gGK4cREPtfAmHeTRY,33.3445626,-111.9505724
7500 E 53RD PL ROOM 1135 DENVER CO 80266,SUB_PREMISE,"7500 East 53rd Place ROOM 1135, Denver, CO 80266-9701, USA",PREMISE,Ejo3NTAwIEVhc3QgNTNyZCBQbGFjZSBST09NIDExMzUsIERlbnZlciwgQ08gODAyNjYtOTcwMSwgVVNBIiAaHgoWChQKEgkpUUkQU3pshxHX1lPpdjBJPhIEMTEzNQ,39.7917315,-104.9001043
4120 JERSEY PIKE CHATTANOOGA TN 37421,PREMISE,"4120 Jersey Pike, Chattanooga, TN 37421-2201, USA",PREMISE,ChIJ8QCTnmZhYIgRjyPjksKLkLk,35.0591788,-85.1962076
5902 SPORTSMANS CLUB ROAD JACKSONVILLE FL 32219,PREMISE,"5902 Sportsman Club Road, Jacksonville, FL 32219-3395, USA",PREMISE,ChIJacVw9ZK75YgRcR9JQ9AvpBI,30.3861928,-81.7657563
DUMMY ADDRESS 4 BONITA LA 71223,OTHER,"DUMMY ADDRESS, #4, Bonita, LA 71223, USA",OTHER,ChIJjepNaM2aLoYRob6Qt_XIN8s,32.9192963,-91.6770672
8500 WILLARD DR BREINIGSVILLE PA 18031,PREMISE,"8500 Willard Drive, Breinigsville, PA 18031-1676, Yr Unol Daleithiau",PREMISE,ChIJZ42GeRsyxIkR_iJv7f-pDV0,40.5513798,-75.6272049
14101 INDUSTRIAL PARKWAY MARYSVILLE OH 43040,PREMISE,"14101 Industrial Parkway, Marysville, OH 43040-9591, USA",PREMISE,ChIJieLw6OjDOIgRfJOk-bxhxTI,40.2098743,-83.3186139
28163 HIGHWAY 28 HAZLEHURST MS 39083,PREMISE,"28163 Mississippi 28, Hazlehurst, MS 39083-9601, USA",PREMISE,ChIJQUeN3JhuKIYRK0dLDHOyzwI,31.8761732,-90.3802598
13060 E TEMPLE AVEBUILDING A CITY OF INDUSTRY CA 91746,SUB_PREMISE,"13060 East Temple Avenue A, City of Industry, CA 91746-1400, USA",PREMISE,EkAxMzA2MCBFYXN0IFRlbXBsZSBBdmVudWUgQSwgQ2l0eSBvZiBJbmR1c3RyeSwgQ0EgOTE3NDYtMTQwMCwgVVNBIh0aGwoWChQKEglziYkyI9fCgBG9HV_JjCkmShIBYQ,34.0572684,-117.9963823
6974 SCHANTZ RD ALLENTOWN PA 18106,PREMISE,"6974 Schantz Road, Allentown, PA 18106-9399, USA",PREMISE,ChIJq5_QZXYxxIkRZ0BEBY3oVNU,40.5782719,-75.6037135
9101 TONNELLE AVE NORTH BERGEN NJ 7047,PREMISE,"9101 Tonnelle Avenue, North Bergen, NJ 07047, États-Unis",PREMISE,ChIJI38ckev3wokRW1qLxQZveJc,40.8150823,-74.0115588
27582 PIONEER AVE REDLANDS CA 92374,PREMISE,"27582 Pioneer Avenue, Redlands, CA 92374-2079, USA",PREMISE,ChIJ0UDOa0-r3IARuwFTRl9GKnE,34.0810475,-117.1991681
3215 N MAIN STSTE 0 PARIS TX 75460,PREMISE,"3215 North Main Street #0, Paris, TX 75460-2207, USA",PREMISE,EjQzMjE1IE5vcnRoIE1haW4gU3RyZWV0ICMwLCBQYXJpcywgVFggNzU0NjAtMjIwNywgVVNBIh0aGwoWChQKEgkJ9ZSUjPdKhhEJq_EBZySkPRIBMA,33.6953988,-95.555338
66 STATION RD CRANBURY NJ 8512,PREMISE,"66 Station Road, Cranbury, NJ 08512-3127, USA",PREMISE,ChIJxySI71LZw4kRPEImWj3wtYE,40.302557,-74.4972541
2325 UNION PIKE RICHMOND IN 47374,PREMISE,"2325 Union Pike, Richmond, IN 47374-9701, USA",PREMISE,ChIJA3xmWnsAQIgRat2n9C_akFo,39.8600975,-84.9041742
1212 VALLEY AVE NWSTE 200 PUYALLUP WA 98371,PREMISE,"1212 Valley Avenue Northwest #200, Puyallup, WA 98371-2500, USA",SUB_PREMISE,ChIJqc4DiDL5kFQRWbnYP_ZEXFs,47.2156676,-122.3120408
33333 J J LEMMON RDFTW1 DALLAS TX 75241,PREMISE,"33333 J J Lemmon Road, Dallas, TX 75241, USA",PREMISE,ChIJDa1MfZC9ToYRFNt40y8BUX0,32.6607181,-96.7350153
6700 MCLARIN ROAD FAIRBURN GA 30213,PREMISE,"6700 McLarin Road, Fairburn, GA 30213-4228, USA",PREMISE,ChIJjQjhN3nn9IgR7BbJEipS_fY,33.5489675,-84.6002366
7909 S UNION RIDGE PKWY# PA RIDGEFIELD WA 98642,PREMISE,"7909 South Union Ridge Parkway PA, Ridgefield, WA 98642, USA",PREMISE,ChIJM4gxP-BMlFQR_iLXTi_07gs,45.8068298,-122.6671883
3311 E LINCOLN WAY AMES IA 50010,PREMISE,"3311 East Lincoln Way, Ames, IA 50010-9123, USA",PREMISE,ChIJReal3PZv7ocRZhv-BzxMNck,42.0250643,-93.5676674
250 DANIELS WAY BURLINGTON NJ 8016,PREMISE,"250 Daniels Way, Burlington, NJ 08016-2141, USA",PREMISE,ChIJZ_3KbNBPwYkRuTQd--ShQfM,40.1049871,-74.8167166
102 VALLEY VIEW LN IRVING TX 75061,PREMISE,"102 Valley View Lane, Irving, TX 75061-6029, USA",PREMISE,ChIJrf8dK2uBToYRY-R_uwiU74g,32.8172366,-97.0282333
2600 MCCREE RD GARLAND TX 75041,PREMISE,"2600 McCree Road, Garland, TX 75041-3901, USA",PREMISE,ChIJezKuSsmgToYRB7fLmJwOtQQ,32.8726281,-96.6728334
5281 TOM MURRAY AVE GLENDALE AZ 85301,PREMISE,"5281 North Tom Murray Avenue, Glendale, AZ 85301-7026, Spojené štáty americké",PREMISE,ChIJZ97QjkxrK4cRRI1oEdx23mg,33.5152729,-112.1599509
10001 N REEMS RD WADDELL AZ 85355,PREMISE,"10001 North Reems Road, Waddell, AZ 85355-9202, Egyesült Államok",PREMISE,ChIJ7W8U47dFK4cRYHDH-IrTW7E,33.575706,-112.3924755
18209 80TH AVE S STE A KENT WA 98032,SUB_PREMISE,"18209 80th Avenue South STE A, Kent, WA 98032-2505, USA",PREMISE_PROXIMITY,EjcxODIwOSA4MHRoIEF2ZW51ZSBTb3V0aCBTVEUgQSwgS2VudCwgV0EgOTgwMzItMjUwNSwgVVNBIjkaNwoyEjAKFAoSCfGD76pFWZBUETCMwXGB-prFEKGOASoUChIJ8YPvqkVZkFQRbgc-d6GvzN8SAWE,47.3686047,-122.2335906
15996 JURUPA AVE FONTANA CA 92337,PREMISE,"15996 Jurupa Avenue, Fontana, CA 92337-7331, Statele Unite ale Americii",PREMISE,ChIJF9D25qm03IAR7AXpPjx0F9U,34.049391,-117.456169
201 JAMES LAWRENCE RD JACKSON TN 38301,PREMISE,"201 James Lawrence Road, Jackson, TN 38301-1625, USA",PREMISE,ChIJfRolotCifogR-b4fatMleJM,35.5989009,-88.9321451
14601 GRANT STDEN3 THORNTON CO 80023,PREMISE,"14601 Grant Street, Thornton, CO 80023-6622, USA",PREMISE,ChIJiRjd8990bIcR89KoSMaWfk0,39.9604919,-104.9848926
"251 E RIDER ST, PERRIS,CA 92571 A PERRIS CA 92571",PREMISE,"251 East Rider Street A, Perris, CA 92571-4613, USA",PREMISE,ChIJY0_kWgKh3IAR7t3fcMD1zqc,33.8299386,-117.222627
1001 NAVIGATION BLVD FREEPORT TX 77541,PREMISE,"1001 Navigation Boulevard, Freeport, TX 77541-5863, USA",PREMISE,ChIJMS5fwyxrQIYRytWz8LqQq3U,28.9410198,-95.345712
13252 S YALE JENKS OK 74037,PREMISE,"13252 South Yale Place, Jenks, OK 74037, USA",PREMISE,ChIJxx6p20KQtocRE5LYS6yn-u8,35.9670769,-95.9295578
825 MADDOX- SIMPSON PARKWAY LEBANON TN 37090,PREMISE,"825 Maddox-Simpson Parkway, Lebanon, TN 37090-0757, USA",PREMISE,ChIJJwFyIMAfZIgRosmmF0wr5XI,36.1833072,-86.275878
8400 MILLIKEN AVENUE RANCHO CUCAMONGA CA 91730,PREMISE,"8400 Milliken Avenue, Rancho Cucamonga, CA 91730-3970, USA",PREMISE,ChIJQYhZAPE1w4AR30Tdron_Mvc,34.1002381,-117.5575076
3731 MT. CREEK PKWY DALLAS TX 75236,PREMISE,"3731 Mountain Creek Parkway, Dallas, TX 75236, USA",PREMISE,ChIJwdLGk_uPToYRpTet0dL-Yjc,32.6897704,-96.9602776
4012 S KEDZIE AVE CHICAGO IL 60632,PREMISE,"4012 South Kedzie Avenue, Chicago, IL 60632, USA",PREMISE,ChIJp7bQyvcxDogRyNtreK0ntOE,41.8199393,-87.7098723
OSCARFLORES 1755-2 PARQUE IND.AMISTAD AEROPUERTO ETAPA II RAMOS ARIZPE CU 25900,OTHER,"OSCARFLORES 1755 2, PARQUE IND.AMISTAD, AEROPUERTO ETAPA II, 25900 Ramos Arizpe, Coah., México",OTHER,ChIJwwj3DbN_gYYRXHdUuNMNRVs,25.538332,-100.9439689
1789 HUBBARD AVE BATAVIA IL 60510,PREMISE,"1789 Hubbard Avenue, Batavia, IL 60510-1423, USA",PREMISE,ChIJL8_rakn8DogRM2t32rD-jIY,41.8610454,-88.2689294
65 PITTS STATION RD MARION NC 28752,PREMISE,"65 Pitts Station Road, Marion, NC 28752-7925, USA",PREMISE,ChIJYxIAmYi6UIgRIpoUwF-GiSE,35.8344488,-82.0010613
2748 WEST WINTON HAYWARD CA 94545,PREMISE,"2748 West Winton Avenue, Hayward, CA 94545-1120, USA",PREMISE,ChIJj-IKqcKQj4ARII3fSxpvCb0,37.6469944,-122.1410736
3930 N W YEON PORTLAND OR 97210,PREMISE,"3930 Northwest Yeon Avenue, Portland, OR 97210-1412, USA",PREMISE,ChIJHSnJfNIJlVQRBboVSR6hMSE,45.5518389,-122.7238414
459 CLINE AVE GARY IN 46406,PREMISE,"459 Cline Avenue, Gary, IN 46406-1049, USA",PREMISE,ChIJZ0NbflLcEYgRURWsUCL7cd8,41.6164066,-87.4311057
2814 S 2ND ST SAINT LOUIS MO 63118,PREMISE,"2814 South 2nd Street, St. Louis, MO 63118, USA",PREMISE,ChIJETsa9L2z2IcR8dDf6ZhXny8,38.5961066,-90.2052474
18211 E VALLEY HWY KENT WA 98032,PREMISE,"18211 East Valley Highway, Kent, WA 98032-1002, USA",PREMISE,ChIJwyaTYP1ckFQR4g5q50tb_-Q,47.4387419,-122.2234862
48188 221ST STREET1563 ELKTON SD 57026,PREMISE,"48188 221st Street, Elkton, SD 57026-6960, USA",PREMISE_PROXIMITY,Ei40ODE4OCAyMjFzdCBTdHJlZXQsIEVsa3RvbiwgU0QgNTcwMjYtNjk2MCwgVVNBIjwaOgoyEjAKFAoSCW9GSbsweImHEQ9B6pP-bFTCELz4AioUChIJgaQ61lrUi4cRW21DqZ1_zooSBDE1NjM,44.1818218,-96.5586602
2820 16TH NORTH BERGEN NJ 7047,PREMISE,"2820 16th Street, North Bergen, NJ 07047-1541, USA",PREMISE,ChIJ8emS86FXwokRfADDfnK0O5I,40.7698045,-74.0547083
1 ELECTRIC AVESTE 0 SPARKS NV 89434,PREMISE,"1 Electric Avenue #0, Sparks, NV 89437-4403, USA",PREMISE,EjAxIEVsZWN0cmljIEF2ZW51ZSAjMCwgU3BhcmtzLCBOViA4OTQzNy00NDAzLCBVU0EiHRobChYKFAoSCfnktreIH5mAEbiqJrzqPkkgEgEw,39.540168,-119.43961
54 S MICHIGAN AVE BUFFALO NY 14203,PREMISE,"54 South Michigan Avenue, Buffalo, NY 14203-3060, Spojené štáty americké",PREMISE,ChIJ-Zj-Qi4S04kRPC63mwLjDVI,42.8721298,-78.8759489
DUMMY CHICAGO IL 60649,OTHER,"DUMMY, Chicago, IL 60649, USA",OTHER,ChIJ6Z0psUgoDogRxpZnNjmZzPo,41.7597921,-87.564304
888 KEARN CREEK CT CITY OF INDUSTRY CA 91745,PREMISE,"888 Kearn Creek Court, City of Industry, CA 91748-1036, Ferienigde Staten",PREMISE,ChIJTwGQFPLVwoARpLaaVdtV2-U,34.0046736,-117.935335
4500 COUNTY RD 59 BUTLER IN 46721,PREMISE,"4500 County Road 59, Butler, IN 46721, USA",PREMISE,ChIJEfFW6Er2PYgRRBOJ3kpP500,41.371988,-84.9219115
4601-300 BULLS BAY HWY JACKSONVILLE FL 32254,PREMISE,"4601-300 Bulls Bay Highway, Jacksonville, FL 32219-3272, USA",SUB_PREMISE,ChIJo0sCVAm85YgRamSZqVxZpLY,30.3783465,-81.7838383
1151 S GRAHAM RDIND9 GREENWOOD IN 46143,PREMISE,"1151 South Graham Road, Greenwood, IN 46143-7830, USA",PREMISE,ChIJHyBH-5FCa4gRFqa9HQkOtW0,39.6001918,-86.0635743
1000 WINDHAM PARKWAY BOLINGBROOK IL 60490,PREMISE,"1000 Windham Parkway, Bolingbrook, IL 60490-3507, USA",PREMISE,ChIJZ-qMuUpZDogR5MMJchj7MeY,41.6660949,-88.1090014
1850 W 2530 N FARR WEST UT 84404,PREMISE,"1850 W 2530 N, Farr West, UT 84404, USA",PREMISE,ChIJxxc1khQNU4cRav_1Kih9ksY,41.2999965,-112.0211821
20 ALDAN AVE GLEN MILLS PA 19342,PREMISE,"20 Aldan Avenue, Glen Mills, PA 19342, USA",PREMISE,ChIJ-0hL8QHwxokRZqjFHp95t48,39.8902266,-75.5287618
27143 ELWOOD INTL PORT RD ELWOOD IL 60421,PREMISE,"27143 South Elwood International Port Road, Elwood, IL 60421-9216, USA",PREMISE,ChIJtbpdTAl9DogRP6lT_KBngKY,41.3910897,-88.1429465
"2800 N HIGHWAY 78 WYLIE ,CO TX 75098",PREMISE,"2800 North South State Highway 78, Wylie, CO 75098-6006, USA",PREMISE,ChIJH52x5hUETIYRKib96bzG0hM,33.0262994,-96.509158
3450 W PALM AVE SAN BERNARDINO CA 92407,PREMISE,"3450 West Palm Avenue, San Bernardino, CA 92407, USA",PREMISE,ChIJ73i4tydOw4ARIN5vSQcfgo8,34.1896475,-117.363983
441 MASTERS BLVD ANDERSON SC 29626,PREMISE,"441 Masters Boulevard, Anderson, SC 29626-6127, USA",PREMISE,ChIJ21JiqW5xWIgRihGBve3NbE4,34.4550143,-82.6833314
DART CONTAINER4444 LEDBETTER AVE DALLAS TX 75236,PREMISE,"DART, CONTAINER4444 West Ledbetter Drive, Dallas, TX 75236, USA",PREMISE,ChIJ99GxzmuQToYRlQodWC3DWg8,32.6901991,-96.8974376
76 INTERMODAL DR BRAMPTON ON L6T5K1,PREMISE,"76 Intermodal Drive, Brampton, ON L6T 5K1, Canada",PREMISE,ChIJIzNHcEM8K4gRQlOHaGiU0JE,43.7339647,-79.6726632
9250 SOUTH MAIN STREETOFFSITE WAREHOUSE JONESBORO GA 30236,PREMISE,"9250 South Main Street WAREHOUSE, Jonesboro, GA 30236, USA",PREMISE,ChIJkxJ3cPH59IgRyioQaK-FYls,33.5046056,-84.3466461
250 WEST APRA STREETR2PFJ COMPTON CA 90220,PREMISE,"250 West Apra Street, Compton, CA 90220-5521, USA",PREMISE,EjEyNTAgV2VzdCBBcHJhIFN0cmVldCwgQ29tcHRvbiwgQ0EgOTAyMjAtNTUyMSwgVVNBIh8aHQoWChQKEgkRpOTRSsvCgBEKPlR-vUtcfBIDciAy,33.8673873,-118.2272608
855 E HWY 80 W% CONVERTING DEPARTMENT FORNEY TX 75126,PREMISE,"W% CONVERTING DEPARTMENT, 855 East US Highway 80, Forney, TX 75126-8614, USA",PREMISE,ChIJZwmag3ytToYRp9UuH4enlto,32.7389092,-96.442269
555 SAINT JAMES GATE BOLINGBROOK IL 60440,PREMISE,"555 Saint James Gate, Bolingbrook, IL 60440-3633, USA",PREMISE,ChIJG0Q8F5hbDogRyODGK9ZpETk,41.6836497,-88.05984
95 NORTH HATFIELD ROAD HATFIELD MA 1038,PREMISE,"95 North Hatfield Road, Hatfield, MA 01038-9773, USA",PREMISE,ChIJu93aNQvU5okRnj39fIsfKks,42.3977036,-72.620602
133 BARNUM RD AYER MA 1432,PREMISE,"133 Barnum Road, Ayer, MA 01434-3509, USA",PREMISE,ChIJ-WiTmSTr44kR6PxvFRD4lFw,42.5476435,-71.5895611
2466 FARM ROAD 137PO BOX 9000 PARIS TX 75460,OTHER,"2466 FARM ROAD 137PO BOX 9000, Paris, TX 75460, USA",OTHER,ChIJSzLFkXxXSoYRSTpeQqLbIH0,33.6018323,-95.624767
SHANGAI 107 SAN LUIS POTOSI SL 79525,OTHER,"107 SHANGAI, 79525, SL",OTHER,ChIJE8d_kxO5KoQRlLscsnL2s3A,21.945733,-100.8592579
7880 PENN DR BREINIGSVILLE PA 18031,PREMISE,"7880 Penn Drive, Breinigsville, PA 18031-1508, Yr Unol Daleithiau",PREMISE,ChIJa1dnRSwyxIkR1RtYKGVzJ0w,40.5758037,-75.6284464
9469 EASTPORT RD JACKSONVILLE FL 32218,PREMISE,"9469 Eastport Road, Jacksonville, FL 32218-2261, USA",PREMISE,ChIJG5Vb0h2y5YgR3J4q-NQ_AUw,30.4249295,-81.6008939
3100 ALBURTIS RD MACUNGIE PA 18062,PREMISE,"3100 Alburtis Road, Macungie, PA 18062, Amérika Sarékat",PREMISE,ChIJ8ZhMBzMuxIkR6BdrfJ5Avdg,40.5202371,-75.5769754
"14900 ANDREWS RD KANSAS CITY,JA MO 64147",PREMISE,"JA, 14900 Andrews Road, Kansas City, MO 64147-1210, Ameerika Ühendriigid",PREMISE,ChIJPX2YMOHcwIcRCbIjiuMxWZA,38.8552374,-94.5375871
12656 ULINE WAY KENOSHA WI 53144,PREMISE,"12656 Uline Way, Kenosha, WI 53144-1111, USA",PREMISE,ChIJwyR9FIhjBYgRqonRhNFNcEI,42.6102158,-87.9619304
3501 PASEO DEL NORTE NE ALBUQUERQUE NM 87113,PREMISE,"3501 Paseo Del Norte Northeast, Albuquerque, NM 87113-1511, EE. UU.",PREMISE,ChIJDfw8khZ0IocR6wtnvwRJxm4,35.1764098,-106.6092371
215 COUNTY RD 216 PALATKA FL 32177,PREMISE,"215 County Road 216, Palatka, FL 32177-9604, Spojené státy americké",PREMISE,ChIJDX16ImVl5ogRuFYSBMsd0iI,29.6794191,-81.6815743
26664 BASELINE RD ELWOOD IL 60421,PREMISE,"26664 BASELINE RD, Elwood, IL 60421-9225, USA",PREMISE,ChIJA6Lp9KF9DogRC0filmPhk90,41.3815441,-88.1477009
1419 S US HIGHWAY 281 FALFURRIAS TX 78355,PREMISE,"1419 U.S. 281, Falfurrias, TX 78355-5311, USA",PREMISE,ChIJB8VJ2a5sZoYROTLYDPHDlN8,27.2119473,-98.1417717
2900 WEST TRUMAN BLVDP O BOX 1047 JEFFERSON CITY MO 65109,PREMISE,"2900 West Truman Boulevard BOX 1047, Jefferson City, MO 65109-0546, USA",PREMISE,ChIJrw1LYtFY24cRuUETw8Ga1Bk,38.5967789,-92.2282789
2417 E CARSON ST100 CARSON CA 90810,PREMISE,"2417 East Carson Street, Carson, CA 90810-1231, USA",SUB_PREMISE,ChIJc1qmHo003YARY8p7rPSAi5Y,33.833754,-118.227458
MZA. 10 EJE 128ZONA INDUSTRIAL SAN LUIS POTOS SAN LUIS POTOSI SL 78395,OTHER,"EJE 128ZONA MZ 10, Industrial San Luis, 78395 San Luis Potosí, SL, Mexico",OTHER,ChIJOUNiYGejKoQR1w8jIbPAEng,22.0933205,-100.8959568
55 HOOSIER ST SELBYVILLE DE 19975,PREMISE,"55 Hosier Street, Selbyville, DE 19975-9300, Ferienigde Staten",PREMISE,ChIJ4yjUC1_ZuIkRnHEpSmos6Lg,38.4607194,-75.2277601
24300 NANDINA AVEONT8 MORENO VALLEY CA 92551,PREMISE,"24300 Nandina Avenue, Moreno Valley, CA 92551-9534, USA",PREMISE,ChIJDZm22M6m3IARt1MuQ6pIuPI,33.8689119,-117.2374814
1635 WESTGATE PARKWAY ATLANTA GA 30336,PREMISE,"1635 Westgate Parkway Southwest, Atlanta, GA 30336-2865, USA",PREMISE,ChIJYa_C1o8f9YgRgm_GrZgmaxY,33.7111129,-84.5961246
2255 W PARK PLACE BLVD STONE MOUNTAIN GA 30087,PREMISE,"2255 West Park Place Boulevard, Stone Mountain, GA 30087-3506, USA",PREMISE,ChIJf6TPvumv9YgRslup6lsnghE,33.8130511,-84.1164749
3776 PEGASUS DRIVE TEMPLE TX 76501,PREMISE,"3776 Pegasus Drive, Temple, TX 76501, USA",PREMISE,ChIJiW5qeRpsRYYR9uASyyhrJ8Y,31.133865,-97.3371293
901 PAGE AVE FREMONT CA 94538,PREMISE,"901 Page Avenue, Fremont, CA 94538-7341, USA",PREMISE,ChIJa-jThSLGj4ARGCdxw99zUCc,37.4708155,-121.9249112
4200 WESTWARD AVENUE COLUMBUS OH 43228,PREMISE,"4200 Westward Avenue, Columbus, OH 43228-1046, USA",PREMISE,ChIJGew0m1CQOIgRcSSn6Sx22hs,39.9721508,-83.1144647
300 EXECUTIVE WAY NEW BERN NC 28562,PREMISE,"300 EXECUTIVE WAY, New Bern, NC 28562-9792, USA",OTHER,ChIJ-ct-xW7QqIkRcADm5ORCDns,35.108493,-77.0441143
4287 ROUTE 130 EDGEWATER PARK NJ 8010,PREMISE,"4287 U.S. 130, Edgewater Park, NJ 08010-3015, USA",PREMISE,ChIJN6Iq7XdMwYkRUJMEnJPiHcE,40.0487993,-74.9073583
100 NE COLUMBIA BLVDP O BOX 3496 PORTLAND OR 97211,PREMISE,"100 Northeast Columbia Boulevard BLVDP O BOX 3496, Portland, OR 97211, USA",PREMISE,ChIJGRkdplOmlVQRPKSqC7snCMk,45.5811156,-122.665586
555 MARITIME STREETBUILDING D512 OAKLAND CA 94607,PREMISE,"555 Maritime Street D512, Oakland, CA 94607-1012, USA",PREMISE,EjU1NTUgTWFyaXRpbWUgU3RyZWV0IEQ1MTIsIE9ha2xhbmQsIENBIDk0NjA3LTEwMTIsIFVTQSIgGh4KFgoUChIJQRLXYn-Aj4AR1G9gAIlBWqoSBGQ1MTI,37.8053396,-122.3150034
465 SAWTELL AVENUE SE ATLANTA GA 30315,PREMISE,"465 Sawtell Avenue Southeast, Atlanta, GA 30315-5217, USA",PREMISE,ChIJTeGfyjAD9YgRk-rWcRaXVkg,33.7091272,-84.3734952
14409 24TH ST. EDAMCO SUMNER WA 98390,PREMISE,"14409 24th Street East EDAMCO, Sumner, WA 98390, USA",PREMISE,ChIJr1KMFbj5kFQRZl2YizGrwtQ,47.2391714,-122.2363273
6098 SOUTEL DR JACKSONVILLE FL 32219,PREMISE,"6098 Soutel Drive, Jacksonville, FL 32219-3742, USA",PREMISE,ChIJnWKMosm75YgRVQtcrYpy7Uw,30.3809438,-81.7393031
101 MASTERS BLVDATTN LISA ELGIN ANDERSON SC 29626,PREMISE,"LISA ELGIN, 101 Masters Boulevard, Anderson, SC 29626-6117, USA",PREMISE,ChIJ_8TbCsdxWIgRKac3JCEj2Qk,34.4454446,-82.6783837
1001 N FM 3083 RD E CONROE TX 77303,PREMISE,"1001 North Farm to Market 3083 Road East, Conroe, TX 77303-1862, USA",PREMISE_PROXIMITY,EkQxMDAxIE5vcnRoIEZhcm0gdG8gTWFya2V0IDMwODMgUm9hZCBFYXN0LCBDb25yb2UsIFRYIDc3MzAzLTE4NjIsIFVTQSIxEi8KFAoSCb2knufgPkeGESqE-m28fnKZEOkHKhQKEgnJ5l_e6D5HhhFUg6fsbEbNVQ,30.3482864,-95.439618
600 FREMONT RD E SYRACUSE NY 13057,PREMISE,"600 Fremont Road East, East Syracuse, NY 13057-9487, USA",PREMISE,ChIJASKDrJGN2YkRl9LrMzPJPS4,43.0724706,-76.0245429
1125 PURINA DR GAINESVILLE GA 30501,PREMISE,"1125 Purina Drive, Gainesville, GA 30501-5031, USA",PREMISE,ChIJ037WOOP29YgRFtOBMc9mJDQ,34.2961175,-83.8084329
1081 W. MCPHERSON CLYDE OH 43410,PREMISE,"1081 West McPherson Highway, Clyde, OH 43410-1001, USA",PREMISE,ChIJZdGamVXJO4gRuMvPfpaKk54,41.3112569,-82.9942117
8295 BAVARIA DRIVE MACEDONIA OH 44056,PREMISE,"8295 Bavaria Drive East, Macedonia, OH 44056-2259, USA",PREMISE,ChIJoT5klSogMYgRq0ngSbjtTCU,41.2841383,-81.473383
1980 TOWNSHIP ROAD 14 VAN BUREN OH 45889,PREMISE,"1980 Township Road 14, Van Buren, OH 45889-9693, USA",PREMISE,ChIJ79y4DJkBPIgRK6y5gtRAOzg,41.1396068,-83.6601659
225 LINCOLN HWY FAIRLESS HILLS PA 19030,PREMISE,"225 Lincoln Highway, Fairless Hills, PA 19030-1103, USA",PREMISE,ChIJBUPAukdRwYkRt3bskA2rtT0,40.1871816,-74.8527605
8816 US HIGHWAY 301 CLAXTON GA 30417,PREMISE,"8816 U.S. 301, Claxton, GA 30417-5428, USA",PREMISE,ChIJKWId4Slh-ogRwuObnVpElOA,32.1806711,-81.8880269
805 MILL RD LEWISTON ID 83501,PREMISE,"805 Mill Road, Lewiston, ID 83501, USA",PREMISE,ChIJAcdh5281oFQRPL7r_LmB8_I,46.4227112,-116.9780239
30500 SE 79TH ST ISSAQUAH WA 98027,PREMISE,"30500 Southeast 79th Street, Issaquah, WA 98027-8700, USA",PREMISE,ChIJX8ScxMR6kFQRXfzx9a9Haxw,47.5308016,-121.9371397
101 FABERGE BLVD RAEFORD NC 28376,PREMISE,"101 Faberge Boulevard, Raeford, NC 28376-3406, USA",PREMISE,ChIJVbrfupQwq4kR945jKEgX_ao,34.9712257,-79.2216764
401 ALASKAN WAY S SEATTLE WA 98104,PREMISE,"401 Alaskan Way South, Seattle, WA 98104-2854, USA",PREMISE_PROXIMITY,EjI0MDEgQWxhc2thbiBXYXkgU291dGgsIFNlYXR0bGUsIFdBIDk4MTA0LTI4NTQsIFVTQSIxEi8KFAoSCQsFuP-kapBUETb08A7lGg4bEJEDKhQKEgll0VUJIECQVBGyVtHKFVcOOw,47.5991669,-122.336492
3923 S B STSMF3 STOCKTON CA 95206,PREMISE,"3923 South B Street, Stockton, CA 95206-8202, USA",PREMISE,ChIJP6UKfMdskIARYL-M_lk57C8,37.9146005,-121.2523216
4039 RIVER RIDGE RD SUMMIT MS 39666,PREMISE,"4039 River Ridge Road, Summit, MS 39666-8005, USA",PREMISE,ChIJE-eqzrLAJ4YRMLwDdtNyVvY,31.275147,-90.3746883
DUMMY ADDRESS 3 HAMBURG AR 71646,OTHER,"DUMMY ADDRESS, #3, Hamburg, AR 71646, USA",OTHER,ChIJyYeoL2UtLIYRBB8dJ-PUFJ8,33.225724,-91.7975545
13048 VALLEY BLVD FONTANA CA 92335,PREMISE,"13048 Valley Boulevard, Fontana, CA 92335-2602, USA",PREMISE,ChIJbZTLIPJKw4ARHb8ob3JFA3c,34.0725419,-117.5205984
2901 KENNY BIGGS RD LUMBERTON NC 28358,PREMISE,"2901 Kenny Biggs Road, Lumberton, NC 28358-6300, USA",PREMISE,ChIJ-RlZLr7dqokRYQTorW92GG4,34.6072024,-79.0424351
16900 WEST SCHULTE RD TRACY CA 95377,PREMISE,"16900 West Schulte Road, Tracy, CA 95377-8985, USA",PREMISE,ChIJRQBx8T4ikIARD8RfS6qfE8o,37.7172761,-121.5180429
2328 POINT MALLARD DR SECANT # 13567 DECATUR AL 35601,PREMISE,"2328 Point Mallard Drive Southeast SECANT # 13567, Decatur, AL 35601, USA",PREMISE,ChIJQdy3o_yGYogR8fk2JeJa3uM,34.5929798,-86.946762
4412 W 300 NMQJ1 GREENFIELD IN 46140,PREMISE,"4412 West 300 North, Greenfield, IN 46140-7099, USA",PREMISE,ChIJAcuUEig0a4gRViRtJx1qRHM,39.828204,-85.8872204
6450 WEST HANNA AVE INDIANAPOLIS IN 46241,PREMISE,"6450 West Hanna Avenue, Indianapolis, IN 46241-6414, USA",PREMISE,ChIJa70iWnKnbIgRoxMDhae6Ivk,39.70743,-86.2741027
2200 NW BRICKYARD RD TOPEKA KS 66618,PREMISE,"2200 Northwest Brickyard Road, Topeka, KS 66618-2814, USA",PREMISE,ChIJ0RfulgUCv4cRVsMbLHl811M,39.0867136,-95.7217554
570 E MILL ST SAN BERNARDINO CA 92408,PREMISE,"570 East Mill Street, San Bernardino, CA 92408-1608, Stati Uniti",PREMISE,ChIJqXv9j1Kt3IAReywilxPCQT4,34.0925675,-117.2754822
6000 DR. LUKE GARRETT JR. MEMO AUSTELL GA 30106,OTHER,"DR. LUKE GARRETT JR. MEMO, 6000, Austell, GA 30106, USA",OTHER,ChIJi7aBL5Ui9YgR2m4Dy9fhljA,33.8417064,-84.6322156
400 S WEAVER ST EMPORIA KS 66801,PREMISE,"400 South Weaver Street, Emporia, KS 66801-7590, USA",PREMISE,ChIJmYZMD21JuYcRu1tdAjtvJsM,38.392261,-96.1511418
701 WALL AVE WALL PA 15148,PREMISE,"701 Wall Avenue, Wall, PA 15148-1463, USA",PREMISE,ChIJ13m3uqfpNIgRx5DTtVmPST8,40.3967987,-79.7828168
572 INDUSTRIAL PARK RD MUNCY PA 17756,PREMISE,"572 Industrial Park Road, Muncy, PA 17756-8059, USA",PREMISE,ChIJH_8-CD2fz4kRcpV2GVAUMOU,41.2189382,-76.7938797
12801 EXCELSIOR DR NORWALK CA 90670,PREMISE,"12801 Excelsior Drive, Norwalk, CA 90670-5413, USA",PREMISE,ChIJqzWawtss3YAR3C83CE2J7KI,33.8960546,-118.0586772
3305 142ND AVE E (DAMCO) SUMNER WA 98390,PREMISE,"3305 142nd Avenue East DAMCO, Sumner, WA 98390, USA",PREMISE,ChIJXUYQPpj5kFQR8zGQmtFhMj4,47.2268621,-122.239492
DUMMY ADDRESS 6 LIVINGSTON LA 70754,OTHER,"DUMMY ADDRESS, #6, Livingston, LA 70754, USA",OTHER,ChIJGbEtRSzdJoYRXFlS4QEVaAs,30.5021345,-90.7478737
1701 PIERCE BUTLER ROUTE SAINT PAUL MN 55104,PREMISE,"1701 PIERCE BUTLER ROUTE, Saint Paul, MN 55104-1101, USA",PREMISE,ChIJIXbpTl8rs1IRAxFfrAnG2W4,44.9702657,-93.1787043
10268 ALMOND AVE FONTANA CA 92335,PREMISE,"10268 Almond Avenue, Fontana, CA 92335-5205, USA",PREMISE,ChIJU-ZugxhLw4ARa1TM0_1cpMI,34.0673498,-117.4941768
8610 SOUTH ATLANTIC AVE SOUTH GATE CA 90280,PREMISE,"8610 Atlantic Avenue, South Gate, CA 90280-3502, USA",PREMISE,ChIJe5qOBSLMwoARIibYf9u7AaY,33.9545547,-118.1820555
585 W 53RD PL DENVER CO 80216,PREMISE,"585 West 53rd Place, Denver, CO 80216-1613, USA",PREMISE,ChIJfYCKPEh4bIcRD_-4t-4OBzY,39.7967372,-104.9954998
1000 MICRO DRGATE #7 MIRA LOMA CA 91752,ROUTE,"1000 Micro Drive #7, Mira Loma, CA 91752, USA",ROUTE,Ei0xMDAwIE1pY3JvIERyaXZlICM3LCBNaXJhIExvbWEsIENBIDkxNzUyLCBVU0EiLiosChQKEglBHQ-onsrcgBHvnpUIRaT2yhIUChIJD0qlXna13IARTpTP884iU1Q,34.0061567,-117.5531232
375 ORR ST ORRVILLE OH 44667,PREMISE,"375 Orr Street, Orrville, OH 44667, USA",PREMISE,ChIJRxnGDsAwN4gRwUDUH8BAaNc,40.8459859,-81.7577655
327 MARGARET ST PLATTSBURGH NY 12901,PREMISE,"327 Margaret Street, Plattsburgh, NY 12901-1719, USA",PREMISE,ChIJv-Kx_cc4ykwRYNUa83HMCKE,44.7115225,-73.4503306
2101 HILL AVE TOLEDO OH 43607,PREMISE,"2101 Hill Avenue, Toledo, OH 43607-3621, USA",PREMISE,ChIJD33GE554PIgRtYVB3-44TQc,41.6378921,-83.5933249
7300 N W 69TH AVE MEDLEY FL 33166,PREMISE,"7300 Northwest 69th Avenue, Medley, FL 33166-2503, USA",PREMISE,ChIJ60iIiEi62YgRMcu4tIrk0PE,25.8384711,-80.3109519
210072 TOWNSHIP RD 90B LETHBRIDGE AB T1J5P1,ROUTE,"210072 Township Road 90b, Lethbridge, AB T0K 0T0, T1J5P1",ROUTE,ChIJCb7b8iqBblMR-0HFeu2vI2U,49.7105898,-112.7282416
194 PLEASANT RIDGE RD PLATTSBURGH NY 12901,PREMISE,"194 Pleasant Ridge Road, Plattsburgh, NY 12901-5841, USA",PREMISE,ChIJl6ft3CFHykwRmVYGy_roKLw,44.6641483,-73.4905581
4325 N MAIN ST FINDLAY OH 45840,PREMISE,"4325 North Main Street, Findlay, OH 45840-7220, USA",PREMISE,ChIJ2QlWC2-qPogR2gzHLKnMhns,41.0927311,-83.6461481
408 DAKOTA STREET LAKE NORDEN SD 57248,PREMISE,"408 Dakota Street, Lake Norden, SD 57248-2139, USA",PREMISE,ChIJNbT3eQ8xiIcRE0cwTIZ3rdU,44.5792188,-97.2106867
400 W LINCOLN AVE LITITZ PA 17543,PREMISE,"400 West Lincoln Avenue, Lititz, PA 17543-8701, USA",PREMISE,ChIJN0RNdooYxokRFx3yC66Mstk,40.1605746,-76.3177759
3000 CANTRELL SANSOM ROAD FORT WORTH TX 76131,PREMISE,"3000 Cantrell Sansom Road, Fort Worth, TX 76131-1914, USA",PREMISE,ChIJ1zqrLjd2ToYRbLw2QBvF-8U,32.847566,-97.31711
1600 MARIETTA ROAD NW GATE 6 ATLANTA GA 30318,PREMISE,"1600 Marietta Road Northwest #6, Atlanta, GA 30318-3651, USA",PREMISE,EjwxNjAwIE1hcmlldHRhIFJvYWQgTm9ydGh3ZXN0ICM2LCBBdGxhbnRhLCBHQSAzMDMxOC0zNjUxLCBVU0EiHRobChYKFAoSCW9Rg1ktG_WIETx6kpbL1-8zEgE2,33.7943928,-84.439072
DUMMY LAS VEGAS NV 89113,OTHER,"DUMMY, Las Vegas, NV 89113, USA",OTHER,ChIJlWyqQxO4yIARZPXtdlDlL7w,36.0563775,-115.2659777
614 TERMINAL WAY SAN PEDRO CA 90731,PREMISE,"614 Terminal Way, San Pedro, CA 90731-7453, USA",PREMISE,ChIJpzYe61U23YARmE13CHEMW1U,33.7409584,-118.2539878
777 N 5600 W SALT LAKE CITY UT 84116,PREMISE,"777 North 5600 West, Salt Lake City, UT 84116-3707, USA",PREMISE,ChIJm1do3vTxUocRYy04dyvuxIQ,40.7859965,-112.0299368
6599 HARPER AVE DETROIT MI 48211,PREMISE,"6599 Harper, Detroit, MI 48211-2404, USA",PREMISE,ChIJG12dXIXTJIgReVRrGD4LbbY,42.3829111,-83.0315204
4107 AVENUE 360 TRAVER CA 93673,PREMISE,"4107 Avenue 360, Traver, CA 93673, États-Unis",PREMISE,ChIJNVZbGSfelIARNcMV79jK7nk,36.4434413,-119.4799522
2402 R ST NW AUBURN WA 98001,PREMISE,"2402 R Street Northwest, Auburn, WA 98001-1608, USA",PREMISE,ChIJnWefDFJYkFQRn-4WNQTHibg,47.3287073,-122.2528341
3867 2ND ST ARCADIA LA 71001,PREMISE,"3867 2nd Street, Arcadia, LA 71001-5376, USA",PREMISE,ChIJp4j7A9KkMYYRA6Y_Gj5BHIw,32.5591383,-92.9422966
799 RTE 206 HILLSBOROUGH NJ 8844,PREMISE,"799 U.S. 206, Hillsborough Township, NJ 08844-1530, USA",PREMISE,ChIJo1BGH3vpw4kRgVuHzyBq4IU,40.4836336,-74.6499242
14600 ROMINE RD CARLETON MI 48117,PREMISE,"14600 Romine Road, Carleton, MI 48117-9257, USA",PREMISE,ChIJV_LFYq1DO4gRo7g91v-YD2A,42.0880953,-83.3595709
1835 W FERRY RD STE 100 NAPERVILLE IL 60563,SUB_PREMISE,"1835 West Ferry Road STE 100, Naperville, IL 60563-9744, USA",PREMISE_PROXIMITY,EjwxODM1IFdlc3QgRmVycnkgUm9hZCBTVEUgMTAwLCBOYXBlcnZpbGxlLCBJTCA2MDU2My05NzQ0LCBVU0EiOho4CjESLwoUChIJaxC2v8H4DogRcUvv4VOQckUQqw4qFAoSCbsWzFHc-A6IETySp54nrRmXEgMxMDA,41.8076259,-88.1917981
2001 YELLOW GOOSE ROAD LANCASTER PA 17601,PREMISE,"2001 Yellow Goose Road, Lancaster, PA 17601-1800, USA",PREMISE,ChIJZZuMRmUhxokRw4YdB2VtL8s,40.0832422,-76.3733664
1980 GETWELL RD MEMPHIS TN 38111,PREMISE,"1980 Getwell Road, Memphis, TN 38111-7006, USA",PREMISE,ChIJg0tn236Gf4gR6S8aoESbk3w,35.0783645,-89.9261993
1950 STERING AVE ONTARIO CA 91761,PREMISE,"1950 South Sterling Avenue, Ontario, CA 91761-7636, USA",PREMISE,ChIJncs4bTs1w4AR-kUgrS3oQtQ,34.0384116,-117.5833656
4001 E U.S. HWY 90 SEGUIN TX 78155,PREMISE,"4001 East U.S. Highway 90, Seguin, TX 78155-1509, USA",PREMISE,ChIJjXL28_q2XIYRjcIxJHO4zkM,29.6083781,-97.9073599
437 OLD AUGUSTA RD S RINCON GA 31326,PREMISE,"437 Old Augusta Road South, Rincon, GA 31326-5220, USA",PREMISE,ChIJ5binRnu--4gR5cU_rBm0LG4,32.3310853,-81.2016175
2040 E 106TH ST STONY IS & 95 IL 60649,PREMISE,"STONY IS & 95, 2040 East 106th Street, Chicago, IL 60617-6455, USA",PREMISE,ChIJy-bMU-wnDogRqGsXa54F_QE,41.7066249,-87.5756845
3700 ZACHARY AVE SHAFTER CA 93263,PREMISE,"3700 Zachary Avenue, Shafter, CA 93263-9581, USA",SUB_PREMISE,ChIJu8ScAwFb6oARWZfM5ZLjj8s,35.4465546,-119.1821412
18810 HARVILL AVE PERRIS CA 92570,PREMISE,"18810 Harvill Avenue, Perris, CA 92570-4902, Stáit Aontaithe Mheiriceá",PREMISE,ChIJbx0-v1qh3IARKPJTFfSk0-E,33.8472694,-117.2554411
149 PLAINFIELD ST CHICOPEE MA 1013,PREMISE,"149 Plainfield Street, Chicopee, MA 01013-1522, USA",PREMISE,ChIJZTKVwMrg5okR59GttzjLlzU,42.1279849,-72.6163265
17182 NEVADA AVE VICTORVILLE CA 92394,PREMISE,"17182 Nevada Avenue, Victorville, CA 92394-7806, USA",PREMISE,ChIJtxWe8QNww4ARyDdcc3D_frA,34.5752078,-117.3657013
2360 COTTONWOOD AVE RIVERSIDE CA 92508,PREMISE,"2360 Cottonwood Avenue, Riverside, CA 92508-2308, USA",PREMISE,ChIJLV2oVYul3IARgS5TecicmCc,33.9250166,-117.2907901
4780 6TH STREET SW CEDAR RAPIDS IA 52404,PREMISE_PROXIMITY,"4780 6th Street Southwest, Cedar Rapids, IA 52404, USA",PREMISE_PROXIMITY,EjY0NzgwIDZ0aCBTdHJlZXQgU291dGh3ZXN0LCBDZWRhciBSYXBpZHMsIElBIDUyNDA0LCBVU0EiMRIvChQKEgnPpGJXJ_jkhxHxzoC1z1GTmhCsJSoUChIJ59Z-Nx345IcRUKYXZwAltKs,41.9324574,-91.6762699
2727 GEESLING RD DENTON TX 76208,PREMISE,"2727 Geesling Road, Denton, TX 76208-1408, USA",PREMISE,ChIJMSu-hKBKTIYRln8tN8Q2-1I,33.2376661,-97.074383
"45 BRUNSWICK AVE EDISON ,MI NJ 8817",PREMISE,"45 Brunswick Avenue, Edison, MI 08817-2588, USA",PREMISE,ChIJtaOHzQDIw4kR3VYLsSuzU6w,40.5318981,-74.4031164
3500 MARVIN RD NE LACEY WA 98516,PREMISE,"3500 Marvin Road Northeast, Lacey, WA 98516-1423, USA",PREMISE,ChIJGSGv4TIKkVQRl07YE_WRcL4,47.0820356,-122.7716692
"14801 SPRING ST SW SUITE B LAKEWOOD ,PI WA 98439",PREMISE,"PI, 14801 Spring Street Southwest SUITE B, Lakewood, WA 98439-5101, USA",PREMISE,EkdQSSwgMTQ4MDEgU3ByaW5nIFN0cmVldCBTb3V0aHdlc3QgU1VJVEUgQiwgTGFrZXdvb2QsIFdBIDk4NDM5LTUxMDEsIFVTQSIdGhsKFgoUChIJC98MsKIGkVQREUuz5HFp_TsSAWI,47.1235752,-122.5361066
3000 NORFOLK SOUTHERN WAY ROSSVILLE TN 38066,PREMISE,"3000 Norfolk Southern Way, Rossville, TN 38066-1512, USA",PREMISE,ChIJVWMQNe-6f4gRs5FW3ysRAh4,35.0104307,-89.5767419
1800 N DICKEY ROAD SPOKANE VALLEY WA 99212,PREMISE,"1800 North Dickey Road, Spokane Valley, WA 99212-1278, USA",PREMISE,ChIJXevQD2YfnlQR2ib20aEf2Mc,47.6743043,-117.3219277
910 NESTLE WAY BREINIGSVILLE PA 18031,PREMISE,"910 Nestle Way, Breinigsville, PA 18031-1539, Yr Unol Daleithiau",PREMISE,ChIJBTPNZ0QyxIkRJ_X_c89Ajy8,40.5683888,-75.6522662
1475 WILLIAM J CLARK DRIVE CONWAY AR 72032,PREMISE,"1475 William J Clark Drive, Conway, AR 72032-8240, USA",PREMISE,ChIJleqnIwqD0ocRKv_80PawMCc,35.0573808,-92.4057426
1505 S HAVEN AVE ONTARIO CA 91761,PREMISE,"1505 South Haven Avenue, Ontario, CA 91761-2928, USA",PREMISE,ChIJtSgFZkA1w4AR7Ohr0vhZjB4,34.0460996,-117.5694337
240A GA HIGHWAY 247 SPUR PERRY GA 31069,ROUTE,"240A State Route 247 Spur, Perry, GA 31069, USA",ROUTE,ChIJOc03zN7Y84gRuhIH8vqHL1A,32.4469462,-83.628631
4004 GALVIN RD CENTRALIA WA 98531,PREMISE,"4004 Galvin Road, Centralia, WA 98531-9057, USA",PREMISE_PROXIMITY,Ei80MDA0IEdhbHZpbiBSb2FkLCBDZW50cmFsaWEsIFdBIDk4NTMxLTkwNTcsIFVTQSIxEi8KFAoSCbmCrc1IYJFUEZtiwHrhB905EKQfKhQKEgmB6wInTGCRVBFLPVEjsKDvoA,46.7356243,-123.0074275
7000 W 71ST ST BEDFORD PARK IL 60638,PREMISE,"7000 West 71st Street, Bedford Park, IL 60638-5902, USA",PREMISE,ChIJE5JCRvEwDogRwdB6aD69w6g,41.764436,-87.7426185
825 ROGERS RD PATTERSON CA 95363,PREMISE,"825 Rogers Road, Patterson, CA 95363-9366, USA",PREMISE,ChIJ_wtyz3C0kYAR7eL5KaPLbYQ,37.4806231,-121.1797388
5197 COMMERCE DRIVE YORK PA 17408,PREMISE,"5197 Commerce Drive, York, PA 17408-9511, USA",PREMISE,ChIJr3lN_8H0yIkRFCx7saY3-RA,39.9393392,-76.8487174
2950 JURUPA ST ONTARIO CA 91761,PREMISE,"2950 East Jurupa Street, Ontario, CA 91761-2936, Amerika Serikat",PREMISE,ChIJG6h-DRg1w4ARkW8x7x0-qH4,34.0451581,-117.5859029
32880 WEST 191ST STREET EDGERTON KS 66021,PREMISE,"32880 West 191st Street, Edgerton, KS 66021-9715, USA",PREMISE,ChIJHZPX4RmkwIcRQ3NjEsyu9PA,38.7822202,-94.9663068
1200 MASON DIXONCP 7101 CONLEY GA 30288,PREMISE,"1200 Mason Dixon Lane #7101, Conley, GA 30288-1135, USA",PREMISE,ChIJrxvlBB3-9IgRzDIX-0mn4aU,33.6649221,-84.3414372
60 E MAIN ST LEOLA PA 17540,PREMISE,"60 East Main Street, Leola, PA 17540-1940, Statele Unite ale Americii",PREMISE,ChIJMwhEm_M_xokRkTRLdpQ-jco,40.0877678,-76.1733424
12400 51ST PLACE SOUTH SEATTLE WA 98178,PREMISE,"12400 51st Place South, Seattle, WA 98178-3436, USA",PREMISE,ChIJlcZOZ_BCkFQROXdJSOupPgk,47.4921819,-122.270075
801 SUNSHINE RD KANSAS CITY KS 66115,PREMISE,"801 Sunshine Road, Kansas City, KS 66115-1121, USA",PREMISE,ChIJ9yA_q0rxwIcRenNiDXvX3Dw,39.1459232,-94.6235683
LOT 16 COMMERENCE AVENUE GREENCASTLE PA 17225,PREMISE,"LOT 16 Commerce Avenue, Greencastle, PA 17225, USA",PREMISE,ChIJ4wCNZ9qRyYkRg7hlBLqRtLM,39.7658233,-77.7380549
3144 W PASSYUNK AVE PHILADELPHIA PA 19145,PREMISE,"3144 West Passyunk Avenue, Philadelphia, PA 19145-5208, USA",PREMISE,ChIJ6e6bu9TFxokRFk3Tw346zUU,39.9195906,-75.2001805
13277 SAN BERNARDINO AVE FONTANA CA 92335,PREMISE,"13277 San Bernardino Avenue, Fontana, CA 92335-5235, USA",PREMISE,ChIJU80j4vBKw4AR-ux-13ZiVlk,34.0753583,-117.516929
DUMMY BRONX NY 10460,OTHER,"DUMMY, The Bronx, NY 10460, Etazonia",OTHER,ChIJyTUgto30wokR_XXblCzUQH0,40.841618,-73.8801301
301 LITTLE HEARST PKWYAMAZON PORT WENTWORTH GA 31407,PREMISE,"301 Little Hearst Parkway, Port Wentworth, GA 31407-9246, USA",PREMISE,ChIJMRepp3Ci-4gRfu7LCrQuvmU,32.1718458,-81.1700987
9802 S HIGHWAY 59 GENTRY AR 72734,PREMISE,"9802 South State Highway 59, Gentry, AR 72734-7009, USA",PREMISE,ChIJ09r3CeSmyYcRwWRi6DNmwck,36.2955603,-94.4439838
3500 INDIAN AVE PERRIS CA 92571,PREMISE,"3500 Indian Avenue, Perris, CA 92571-3215, USA",PREMISE,ChIJpXCVqRCh3IARahWki2Ao6iA,33.8353692,-117.2340409
15 COMMERCE PKWY WEST JEFFERSON OH 43162,PREMISE,"15 Commerce Parkway, West Jefferson, OH 43162-9422, USA",PREMISE,ChIJ5WIvj6qkOIgRrhnD1VH44JI,39.952089,-83.3368562
2089 PILLSBURY DR GENEVA IL 60134,PREMISE,"2089 Pillsbury Drive, Geneva, IL 60134-3731, USA",PREMISE,ChIJWXdPepP9DogRHQ7I3sQk5Fo,41.8926723,-88.2677131
20005 E BUSINESS PARKWAY WALNUT CA 91789,PREMISE,"20005 East Business Parkway, Walnut, CA 91789-2943, USA",PREMISE,ChIJ44u0U68rw4ARhNSAwNKdpn8,34.0024465,-117.8667058
1 QUALITY LNCANT # 11322 CARY NC 27513,PREMISE,"1 Quality Lane #11322, Cary, NC 27513-2001, USA",PREMISE,ChIJL-ZFbH3zrIkRzTvya-prRao,35.8164756,-78.8088825
86280 GENE LASSERE BLVD YULEE FL 32097,PREMISE,"86280 Gene Lassere Boulevard, Yulee, FL 32097-3310, USA",PREMISE,ChIJP-5zsmIA5YgRoxGaJKiy-7E,30.6332099,-81.5589142
3450 E HOLMES RDMEM1 MEMPHIS TN 38118,PREMISE,"3450 East Holmes Road RDMEM1, Memphis, TN 38118-8102, USA",PREMISE,ChIJ66mLrOiIf4gRtGrvCNqBwL8,35.0062679,-89.9484032
2825 W MAIN ST BARSTOW CA 92311,PREMISE,"2825 Main Street, Barstow, CA 92311, USA",PREMISE,ChIJa8fwu1R5xIARNaZCvlrizTI,34.8848426,-117.0842817
1595 OAKLEY INDUSTRIAL BLVD FAIRBURN GA 30213,PREMISE,"1595 Oakley Industrial Boulevard, Fairburn, GA 30213-8243, USA",PREMISE,ChIJ64QP-Y7n9IgRFJbv7kwrcUw,33.5298152,-84.5991731
225 PORTWALL ST HOUSTON TX 77029,PREMISE,"225 Portwall Street, Houston, TX 77029-1307, l-Istati Uniti",PREMISE,ChIJwzRA6IS7QIYR2G0MG7B--BE,29.7865064,-95.2751373
507 W. OWASSA RDSUITE E EDINBURG TX 78542,PREMISE,"507 West Owassa Road East, Edinburg, TX 78542, USA",PREMISE,EjI1MDcgV2VzdCBPd2Fzc2EgUm9hZCBFYXN0LCBFZGluYnVyZywgVFggNzg1NDIsIFVTQSIdGhsKFgoUChIJQQ33unGhZYYRqZx5MCZzaxsSAWU,26.2497178,-98.1802129
405 PARK DR CARLISLE PA 17015,PREMISE,"405 Park Drive, Carlisle, PA 17015-9270, USA",PREMISE,ChIJ25xJXV3iyIkRySNDQLm9Wgw,40.1311781,-77.1709836
11290 CANTU GALLEANO RANCH RD MIRA LOMA CA 91752,PREMISE,"11290 Cantu-Galleano Ranch Road, Mira Loma, CA 91752-1448, Stati Uniti",PREMISE,ChIJAzF2T3K13IARJKxrO8nfjQI,34.0049345,-117.5300011
1050 SW SPOKANE ST SEATTLE WA 98134,PREMISE,"1050 Southwest Spokane Street, Seattle, WA 98134, USA",PREMISE,ChIJJUCckjZAkFQRvYUQq-COSYc,47.5718408,-122.3479558
"700 GA HIGHWAY 133 S, MOULTRIE MOULTRIE GA 31788",ROUTE,"700 Georgia 133 South, Moultrie, GA 31788, USA",ROUTE,Ei43MDAgR2VvcmdpYSAxMzMgU291dGgsIE1vdWx0cmllLCBHQSAzMTc4OCwgVVNBIi4qLAoUChIJCQtQraPl7YgRZegESgWcuuoSFAoSCWGYIS3X5-2IEc33AiDndh2z,31.1586736,-83.738219
"423 PITTS SCHOOL RD NW CONCORD,CA NC 28027",PREMISE,"423 Pitts School Road Northwest, Concord, CA 28027-2904, USA",PREMISE,ChIJAxBGTc0EVIgRnJySLfKyKc0,35.381413,-80.6887784
5050 PAXTON ST RUTHERFORD PA 17111,PREMISE,"5050 Paxton Street, Harrisburg, PA 17111-2517, USA",PREMISE,ChIJUQDywmy_yIkR-umt1rGab48,40.2597324,-76.7933708
8801 CONGDON HILL DRIVE SUITE MERTZTOWN PA 19539,PREMISE,"8801 Congdon Hill Drive SUITE, Mertztown, PA 19539, USA",PREMISE,ChIJL3WFnOAtxIkREGvY3dZj1w0,40.519232,-75.6245932
355 CAROB STREET COMPTON CA 90220,PREMISE,"355 West Carob Street, Compton, CA 90220-5212, USA",PREMISE,ChIJz4iPfUfLwoARzHgFqtNCQwc,33.8797669,-118.2290884
2000 NELSON MILLER PARKWAY LOUISVILLE KY 40223,PREMISE,"2000 Nelson Miller Parkway, Louisville, KY 40223-2178, USA",PREMISE,ChIJF3jSHdiYaYgR-7n86sYlJfE,38.2721057,-85.5098246
2300 BECKLEYMEADE AVE DALLAS TX 75232,PREMISE,"2300 Beckleymeade Avenue, Dallas, TX 75232-5100, USA",PREMISE,ChIJuy53m0GRToYRxlBheoeXdrU,32.6394677,-96.8548673
668 BILL JONES INDUSTRIAL DRIVE SPRINGFIELD TN 37172,PREMISE,"668 Bill Jones Industrial Drive, Springfield, TN 37172-3000, USA",PREMISE,ChIJCdw-Y8xVZIgR0AuacuKqf0o,36.4973927,-86.8649147
3960 E JURUPA ST ONTARIO CA 91761,PREMISE_PROXIMITY,"3960 East Jurupa Street, Ontario, CA 91761, EUA",PREMISE_PROXIMITY,Ei8zOTYwIEVhc3QgSnVydXBhIFN0cmVldCwgT250YXJpbywgQ0EgOTE3NjEsIEVVQSIxEi8KFAoSCa8bTUdCNcOAEc18f0Ki4lVkEPgeKhQKEglX4TA1yErDgBF9Im8P_THwxA,34.0475226,-117.5671788
97 LOCUST RD LEWISTOWN PA 17044,PREMISE,"97 Locust Road, Lewistown, PA 17044-9340, USA",PREMISE,ChIJMUDjeldKyYkRfaOjm-jxQRg,40.5680185,-77.5968867
LIBRAMIENTO OSCAR FLORES TAPIA1505 PARQUE IND. RAMPS ARIZPE RAMOS ARIZPE CU 25900,PREMISE,"Libramiento Óscar Flores Tapia, PARQUE IND, 25900 Ramos Arizpe, CU, México",PREMISE,ChIJqz3TiXAUiIYRbfzbN7IlZAE,25.5456877,-100.9232695
320 NE CRANEST TOPEKA KS 66601,OTHER,"320 NE CRANEST, Topeka, KS 66601, USA",OTHER,ChIJV7yIWwUDv4cR5bGPlUvbbzE,39.0541528,-95.6721245
6601 TICO RD TITUSVILLE FL 32780,PREMISE,"6601 Tico Road, Titusville, FL 32780-8010, USA",PREMISE,ChIJ7wC_Uj6t4IgRqOtE13U2ByM,28.5168386,-80.7903829
14425 MINES RD LAREDO TX 78045,PREMISE,"14425 Mines Road, Laredo, TX 78045-7848, USA",PREMISE,ChIJI_rSGsHfYIYRhpIE4Rz96RE,27.6238829,-99.5261761
14810 FAIRWAY PINES DRIVE MISSOURI CITY TX 77489,PREMISE,"14810 Fairway Pines Drive, Missouri City, TX 77489-3397, USA",PREMISE,ChIJGRpZNL7pQIYRhCEOrMszGFk,29.609312,-95.5160571
4943 N 900 EATTN BILLING VAN BUREN IN 46991,PREMISE,"4943 North 900 East BILLING, Van Buren, IN 46991, USA",PREMISE,ChIJzbOsb7KuFYgRz-XPyYf3lXk,40.6247444,-85.5053256
7393 SHAWNEE RD NORTH TONAWANDA NY 14120,PREMISE,"7393 Shawnee Road, North Tonawanda, NY 14120-1325, USA",PREMISE,ChIJA92AhiZw04kRSGaKiLOtSRE,43.0647627,-78.8329555
3801 MCINTYRE CT GOLDEN CO80401 GOLDEN CO 80401,PREMISE,"3801 McIntyre Court, Golden, CO 80403-7507, USA",PREMISE_PROXIMITY,Ei8zODAxIE1jSW50eXJlIENvdXJ0LCBHb2xkZW4sIENPIDgwNDAzLTc1MDcsIFVTQSIxEi8KFAoSCY9crX8JhWuHEcYqHsRJUs-fENkdKhQKEgmPXK1_CYVrhxELO8-bbQqa8w,39.7691586,-105.1755249
705 N LINCOLN ST SPRING HILL KS 66083,PREMISE,"705 North Lincoln Street, Spring Hill, KS 66083-8840, USA",PREMISE,ChIJ0_1xJCW6wIcR8HTkRA9rs3M,38.750506,-94.8199879
2309 W BLOOMINGTON RD CHAMPAIGN IL 61821,PREMISE,"2309 West Bloomington Road, Champaign, IL 61822-1400, USA",PREMISE,ChIJ3RYUbYfaDIgRZnXUnHv5GOY,40.1393634,-88.2865618
7600 SANTA FE DRSANTA FE RAILROAD HODGKINS IL 60525,PREMISE,"FE RAILROAD, 7600 Santa Fe Drive, Hodgkins, IL 60525-5066, USA",PREMISE,ChIJiaE3-A1IDogR23POidcSHEE,41.750807,-87.870251
8505 50TH ST KENOSHA WI 53144,PREMISE,"8505 50th Street, Kenosha, WI 53144-7868, USA",PREMISE,ChIJixvbYhVhBYgR3pRQwc1yvqQ,42.5904991,-87.9123343
601 ALLLENDALE ROAD KING OF PRUSSIA PA 19406,PREMISE,"601 Allendale Road, King of Prussia, PA 19406-1417, USA",PREMISE,ChIJ7cw90jGUxokRM6eFzIfE1kY,40.099265,-75.396295
8230 STEDMAN ST HOUSTON TX 77029,PREMISE,"8230 Stedman Street, Houston, TX 77029-3928, USA",PREMISE,ChIJCVkjiWe8QIYRndYh1aHDwcg,29.7540214,-95.2766025
4401 RED DEVIL RD HANNIBAL MO 63401,PREMISE,"4401 Red Devil Road, Hannibal, MO 63401-6320, USA",PREMISE,ChIJ51964KXp3YcRHeeJHp1dyGw,39.6787149,-91.413515
BLVD. OMEGA # 2150 PARQUE IND. RAMOS ARIZPE CU 25900,PREMISE,"Boulevard Omega 2150, PARQUE IND, 25900 Ramos Arizpe, Coah., México",PREMISE,ChIJlwPeTx4ViIYRCb46p43vJgE,25.5798099,-100.9151819
7400 95TH ST PLEASANT PRAIRIE WI 53158,PREMISE,"7400 95th Street, Pleasant Prairie, WI 53158-2714, USA",PREMISE,ChIJDWizSNNhBYgR45ipv7UcA0U,42.5375287,-87.8957783
1730 8TH ST SEGUIN TX 78155,PREMISE,"1730 8th Street, Seguin, TX 78155-2554, USA",PREMISE,ChIJx8TjJje4XIYRue1Zqc06Nzs,29.588516,-97.9797254
910 ANDERSON RD ELLENSBURG WA 98926,PREMISE,"910 Anderson Road, Ellensburg, WA 98926-9693, USA",PREMISE,ChIJXQVFbSrymVQRy-YKxQz8qAA,46.9823508,-120.5555535
3305 S CHESTNUT FRESNO CA 93725,PREMISE,"3305 South Chestnut Avenue, Fresno, CA 93725-2608, USA",PREMISE,ChIJu1YcVIH1lIARqT4tJQ7BEtY,36.6867699,-119.7371295
5115 FISHER RD COLUMBUS OH 43228,PREMISE,"5115 Fisher Road, Columbus, OH 43228-9146, USA",PREMISE,ChIJHdJ-Cu-QOIgR3_uEu0YX5lI,39.971977,-83.1357495
5801 KROGER DRIVE KELLER TX 76248,PREMISE,"5801 Kroger Drive, Keller, TX 76244-5602, USA",PREMISE,ChIJw_JS6JnXTYYRrdlgUloVx2M,32.9131343,-97.2652597
510 JONESVILLE RD COLDWATER MI 49036,PREMISE,"510 Jonesville Road, Coldwater, MI 49036-9648, USA",PREMISE,ChIJr2ycgTbYF4gROWXK5QfCPnw,41.9856311,-84.976423
2924 E 126TH STUNIT 100 CHICAGO IL 60633,PREMISE,"2924 East 126th Place #100, Chicago, IL 60633-1133, USA",PREMISE,EjcyOTI0IEVhc3QgMTI2dGggUGxhY2UgIzEwMCwgQ2hpY2FnbywgSUwgNjA2MzMtMTEzMywgVVNBIh8aHQoWChQKEgnvo89yRCcOiBFZLFLRfFprbxIDMTAw,41.6690239,-87.5528733
1111 INTERMODAL PKWYALLIANCE CENTER HASLET TX 76052,PREMISE,"1111 Intermodal Parkway CENTER, Haslet, TX 76052-2701, USA",PREMISE,ChIJZwGTEIfbTYYRzSKckUvPtG8,32.9901037,-97.3496724
21250 SOUTHWEST FRONTAGE RD SHOREWOOD IL 60404,PREMISE,"21250 Southwest Frontage Road, Shorewood, IL 60404-7631, USA",PREMISE,ChIJSWxX-pyJDogR2vlKrv8Lg8g,41.4951252,-88.2044193
2970 N LAMB BLVDSTE 115 LAS VEGAS NV 89115,SUB_PREMISE,"2970 North Lamb Boulevard #115, Las Vegas, NV 89115-3489, USA",PREMISE,Ej0yOTcwIE5vcnRoIExhbWIgQm91bGV2YXJkICMxMTUsIExhcyBWZWdhcywgTlYgODkxMTUtMzQ4OSwgVVNBIh8aHQoWChQKEglX0V3zJN3IgBGfwEv87fB4dxIDMTE1,36.2134826,-115.0779216
103 COMMERCE DR ASTON PA 19014,PREMISE,"103 Commerce Drive, Aston, PA 19014-3204, USA",PREMISE,ChIJ2dgJDUfmxokRbSOFSVeZnuI,39.8478964,-75.4029692
2415 N LOCUST AVE RIALTO CA 92377,PREMISE,"2415 North Locust Avenue, Rialto, CA 92377-4110, USA",PREMISE,ChIJz8r-zdRNw4ARzDjEjFwjQBI,34.1459473,-117.4082817
13501 38TH ST E SUMNER WA 98390,PREMISE,"13501 38th Street East, Sumner, WA 98390-9220, USA",PREMISE,ChIJcakqenX5kFQRlrKE3Fjykok,47.2220175,-122.2493445
"1710 ATLANTIC AVE CHESAPEAKE ,IC VA 23324",PREMISE,"IC, 1710 Atlantic Avenue, Chesapeake, VA 23324-3126, USA",PREMISE,ChIJU2IG-y69uokR5qDkm-c2X1w,36.802851,-76.2626455
2020 N POLK ST DE SOTO TX 75115,PREMISE,"2020 North Polk Street, DeSoto, TX 75115-3400, Ferienigde Staten",PREMISE,ChIJtXBvcP6TToYRRVRXcC1TCbw,32.6310434,-96.8380141
45500 FREMONT BLVD FREMONT CA 94538,PREMISE,"45500 Fremont Boulevard, Fremont, CA 94538-6326, USA",PREMISE,ChIJwUENjQLHj4ARe5cWf4W_Fx8,37.4924829,-121.9447251
1340 141ST ST HAMMOND IN 46327,PREMISE,"1340 141st Street, Hammond, IN 46327-3107, USA",PREMISE,ChIJW8B3tN7eEYgRaqVbd_54pnE,41.6385811,-87.4948266
2888 EL PRESIDIO STREET CARSON CA 90810,PREMISE,"2888 East El Presidio Street, Carson, CA 90810-1119, EE. UU.",PREMISE,ChIJ2YiQzpw03YARp2j09YsVlwM,33.8409345,-118.2097152
2601D COMMERCE DR JONESBORO AR 72401,PREMISE,"2601D Dr Martin Luther King Jr Drive, Jonesboro, AR 72401, USA",PREMISE,ChIJ11h2VW0t1IcRRP5ydxVi7kw,35.8162417,-90.6244079
220 SMOKEY BEAR LN COVINGTON VA 24426,PREMISE,"220 Smokey Bear Lane, Covington, VA 24426, USA",PREMISE,ChIJbx9W8QnxTIgRstjlTQnY6ME,37.7769323,-79.9651046
10200 AMARGOSA DR HESPERIA CA 92345,PREMISE,"10200 Amargosa Road, Hesperia, CA 92345-0285, EUA",PREMISE,ChIJP_CN8mVow4ARmqyTNDmmRpQ,34.4346175,-117.3774383
8181 W ROOSEVELT STGYR3 PHOENIX AZ 85043,PREMISE,"8181 West Roosevelt Street, Phoenix, AZ 85043-2356, USA",PREMISE,ChIJvX9DCmAVK4cRfwKRPmOyQ7A,33.4576191,-112.2330043
4554 OSCAR NELSON JUNIOR DRDC 7042 BAYTOWN TX 77523,PREMISE,"4554 Oscar Nelson Junior Drive DRDC 7042, Baytown, TX 77523, USA",PREMISE,ChIJi9v_AEZdP4YRa9M3-SAkAmM,29.7149056,-94.9071864
2116 E 220TH ST CARSON CA 90810,PREMISE,"2116 East 220th Street, Carson, CA 90810-1605, USA",PREMISE,ChIJLdz6gvY03YARVsEa3-HkhOE,33.8272007,-118.235302
300 GATEWAY PKWY ROANOKE TX 76262,PREMISE,"300 Gateway Parkway, Roanoke, TX 76262-6399, USA",PREMISE,ChIJwYXeqPfQTYYRXqTpJAukYZE,33.0018217,-97.2352845
5710 WEST BLVD CHARLOTTE NC 28208,PREMISE,"5710 West Boulevard, Charlotte, NC 28208-0200, USA",PREMISE,ChIJ4cIluFqYVogRUZecQ584cuw,35.1933251,-80.956412
"3516 S MILITARY HWYORF1 CHESAPEAKE ,IC VA 23323",PREMISE,"IC, 3516 South Military Highway, Chesapeake, VA 23323-2308, USA",PREMISE,ChIJ9ytqDvqjuokRBlBjQuawgfk,36.7697657,-76.3527845
650 SOUTH GUILD LODI CA 95240,PREMISE,"650 South Guild Avenue, Lodi, CA 95240-3114, USA",PREMISE,ChIJL9w1eOGfmoARcFazGdBrq-g,38.1259223,-121.2468753
2551 LOGISTICS DR JOLIET IL 60436,PREMISE,"2551 Logistics Drive, Joliet, IL 60436-2095, USA",PREMISE,ChIJY2zjm8ZiDogRj4ijvWLszsI,41.4441323,-88.1405086
